{
  "data": {
    "locations":[
      {
        "State_Abv": "AL",
    "State": "Alabama",
    "All_Centers": "ALAM-TX1",
    "Hospital_Name": "University of South Alabama Medical Center",
    "All_Centers_Hospital_Name": "ALAM-TX1 University of South Alabama Medical Center",
    "Address": "1261 Hillcrest Rd, Mobile, AL 36695",
    "link": "https://www.usahealthsystem.com/locations/university-hospital",
    "Latitude": 30.66347127,
    "Longitude": -88.190445
  },
  {
    "State_Abv": "AL",
    "State": "Alabama",
    "All_Centers": "ALCH-TX1",
    "Hospital_Name": "Children's of Alabama",
    "All_Centers_Hospital_Name": "ALCH-TX1 Children's of Alabama",
    "Address": "1600 7th Avenue South Birmingham, AL 35233",
    "link": "https://www.childrensal.org/?utm_campaign=website-link&utm_medium=organic&utm_source=local-listing",
    "Latitude": 33.50468945,
    "Longitude": -86.80563664
  },
  {
    "State_Abv": "AL",
    "State": "Alabama",
    "All_Centers": "ALUA-TX1",
    "Hospital_Name": "University of Alabama Hospital",
    "All_Centers_Hospital_Name": "ALUA-TX1 University of Alabama Hospital",
    "Address": "619 South 20th Street Birmingham, AL 35233",
    "link": "http://www.uabmedicine.org/locations/uab-hospital",
    "Latitude": 33.51165166,
    "Longitude": -86.89626998
  },
  {
    "State_Abv": "AL",
    "State": "Alabama",
    "All_Centers": "ALVA-TX1",
    "Hospital_Name": "Birmingham VA Medical Center",
    "All_Centers_Hospital_Name": "ALVA-TX1 Birmingham VA Medical Center",
    "Address": "700 19th St S, Birmingham, AL 35233",
    "link": "http://www.birmingham.va.gov/",
    "Latitude": 33.50505,
    "Longitude": -86.80129
  },
  {
    "State_Abv": "AR",
    "State": "Arkansas",
    "All_Centers": "ARBH-TX1",
    "Hospital_Name": "Baptist Medical Center",
    "All_Centers_Hospital_Name": "ARBH-TX1 Baptist Medical Center",
    "Address": "9601 Baptist Health Dr, Little Rock, AR 72205",
    "link": "https://www.baptist-health.com/location/baptist-health-little-rock-emergency-department/",
    "Latitude": 34.743831,
    "Longitude": -92.38100359
  },
  {
    "State_Abv": "AR",
    "State": "Arkansas",
    "All_Centers": "ARCH-TX1",
    "Hospital_Name": "Arkansas Children's Hospital",
    "All_Centers_Hospital_Name": "ARCH-TX1 Arkansas Children's Hospital",
    "Address": "1 Children's Way, Little Rock, AR 72202",
    "link": "https://www.archildrens.org/",
    "Latitude": 34.74084135,
    "Longitude": -92.29159233
  },
  {
    "State_Abv": "AR",
    "State": "Arkansas",
    "All_Centers": "ARUA-TX1",
    "Hospital_Name": "UAMS Medical Center",
    "All_Centers_Hospital_Name": "ARUA-TX1 UAMS Medical Center",
    "Address": "4301 W Markham Little Rock, AR 72205",
    "link": "https://uamshealth.com/location/uams-medical-center/?utm_source=google&utm_medium=gmb&utm_campaign=clinical&utm_term=location&utm_content=profile&utm_specs=uams-medical-center",
    "Latitude": 34.74953576,
    "Longitude": -92.32053163
  },
  {
    "State_Abv": "AZ",
    "State": "Arizona",
    "All_Centers": "AZCH-TX1",
    "Hospital_Name": "Phoenix Children's Hospital",
    "All_Centers_Hospital_Name": "AZCH-TX1 Phoenix Children's Hospital",
    "Address": "1919 E Thomas Rd, Phoenix, AZ 85016",
    "link": "http://phoenixchildrens.org/?utm_source=chatmeter&utm_medium=local-listing",
    "Latitude": 33.4788896,
    "Longitude": -112.0411281
  },
  {
    "State_Abv": "AZ",
    "State": "Arizona",
    "All_Centers": "AZGS-TX1",
    "Hospital_Name": "Banner-University Medical Center Phoenix",
    "All_Centers_Hospital_Name": "AZGS-TX1 Banner-University Medical Center Phoenix",
    "Address": "1111 E McDowell Rd, Phoenix, AZ 85006",
    "link": "https://www.bannerhealth.com/locations/phoenix/banner-university-medical-center-phoenix?y_source=1_MTE5MDczNTMtNzE1LWxvY2F0aW9uLmdvb2dsZV93ZWJzaXRlX292ZXJyaWRl",
    "Latitude": 33.46470925,
    "Longitude": -112.05858
  },
  {
    "State_Abv": "AZ",
    "State": "Arizona",
    "All_Centers": "AZMC-TX1",
    "Hospital_Name": "Mayo Clinic Hospital",
    "All_Centers_Hospital_Name": "AZMC-TX1 Mayo Clinic Hospital",
    "Address": "5777 East Mayo Boulevard Phoenix, AZ 85054",
    "link": "http://www.mayoclinic.org/patient-visitor-guide/arizona/campus-buildings-maps/mayo-clinic-hospital?mc_id=us&utm_source=yext&utm_medium=l&utm_content=feature&utm_campaign=mayoclinic&geo=national&placementsite=enterprise&invsrc=other&cauid=102372",
    "Latitude": 33.65725275,
    "Longitude": -111.9558917
  },
  {
    "State_Abv": "AZ",
    "State": "Arizona",
    "All_Centers": "AZSJ-TX1",
    "Hospital_Name": "St. Joseph's Hospital and Medical Center",
    "All_Centers_Hospital_Name": "AZSJ-TX1 St. Joseph's Hospital and Medical Center",
    "Address": "350 West Thomas Road Phoenix, AZ 85013",
    "link": "https://locations.dignityhealth.org/st-joseph's-hospital-and-medical-center?utm_source=LocalSearch&utm_medium=Facility&utm_campaign=Arizona&utm_term=St.Joseph%27sHospitalandMedicalCenter&y_source=1_NjE3ODk3NS03MTUtbG9jYXRpb24ud2Vic2l0ZQ%3D%3D",
    "Latitude": 33.4822628,
    "Longitude": -112.0800515
  },
  {
    "State_Abv": "AZ",
    "State": "Arizona",
    "All_Centers": "AZSM-TX1",
    "Hospital_Name": "Scottsdale Healthcare Osborn",
    "All_Centers_Hospital_Name": "AZSM-TX1 Scottsdale Healthcare Osborn",
    "Address": "7400 E Osborn Rd, Scottsdale, AZ 85251",
    "link": "https://www.honorhealth.com/locations/hospitals/scottsdale-osborn-medical-center?utm_source=GMB&utm_medium=local&utm_campaign=Scottsdale_Osborn_Medical_Center",
    "Latitude": 33.4885727,
    "Longitude": -111.9229832
  },
  {
    "State_Abv": "AZ",
    "State": "Arizona",
    "All_Centers": "AZTV-TX1",
    "Hospital_Name": "Veterans Administration Medical Center Tucson",
    "All_Centers_Hospital_Name": "AZTV-TX1 Veterans Administration Medical Center Tucson",
    "Address": "3601 S 6th Ave, Tucson, AZ 85723",
    "link": "http://www.va.gov/",
    "Latitude": 32.18144915,
    "Longitude": -110.9647969
  },
  {
    "State_Abv": "AZ",
    "State": "Arizona",
    "All_Centers": "AZUA-TX1",
    "Hospital_Name": "Banner University Medical Center-Tucson",
    "All_Centers_Hospital_Name": "AZUA-TX1 Banner University Medical Center-Tucson",
    "Address": "1625 North Campbell Avenue Tucson, AZ 85719",
    "link": "https://www.bannerhealth.com/locations/tucson/banner-university-medical-center-tucson",
    "Latitude": 32.24197631,
    "Longitude": -110.9440946
  },
  {
    "State_Abv": "CA",
    "State": "California",
    "All_Centers": "CABE-TX1",
    "Hospital_Name": "Saint Bernardine Medical Center",
    "All_Centers_Hospital_Name": "CABE-TX1 Saint Bernardine Medical Center",
    "Address": "2101 N Waterman Ave, San Bernardino, CA 92404",
    "link": "https://locations.dignityhealth.org/dignity-health-st-bernardine-medical-center?utm_source=LocalSearch&utm_medium=Facility&utm_campaign=SouthernCalifornia&utm_term=DignityHealth-St.BernardineMedicalCenter&y_source=1_NjMzNjQ5Ny03MTUtbG9jYXRpb24ud2Vic2l0ZQ%3D%3D",
    "Latitude": 34.134179,
    "Longitude": -117.278677
  },
  {
    "State_Abv": "CA",
    "State": "California",
    "All_Centers": "CABH-TX1",
    "Hospital_Name": "Alta Bates Medical Center",
    "All_Centers_Hospital_Name": "CABH-TX1 Alta Bates Medical Center",
    "Address": "3242 Telegraph Ave, Oakland, CA 94609",
    "link": "https://www.sutterhealth.org/find-location/facility/alta-bates-summit-medical-center-summit-campus",
    "Latitude": 37.8332682,
    "Longitude": -122.2634625
  },
  {
    "State_Abv": "CA",
    "State": "California",
    "All_Centers": "CACH-TX1",
    "Hospital_Name": "Rady Children's Hospital and Health Center",
    "All_Centers_Hospital_Name": "CACH-TX1 Rady Children's Hospital and Health Center",
    "Address": "D, 477 N El Camino Real #302, Encinitas, CA 92024",
    "link": "http://www.rchsd.org/",
    "Latitude": 33.0571471,
    "Longitude": -117.2614423
  },
  {
    "State_Abv": "CA",
    "State": "California",
    "All_Centers": "CACL-TX1",
    "Hospital_Name": "Childrens Hospital Los Angeles",
    "All_Centers_Hospital_Name": "CACL-TX1 Childrens Hospital Los Angeles",
    "Address": "4650 Sunset Blvd, Los Angeles, CA 90027",
    "link": "https://www.chla.org/",
    "Latitude": 34.0976912,
    "Longitude": -118.2900801
  },
  {
    "State_Abv": "CA",
    "State": "California",
    "All_Centers": "CACS-TX1",
    "Hospital_Name": "Cedars-Sinai Medical Center",
    "All_Centers_Hospital_Name": "CACS-TX1 Cedars-Sinai Medical Center",
    "Address": "8700 Beverly Blvd #2900A, Los Angeles, CA 90048",
    "link": "https://www.cedars-sinai.org/",
    "Latitude": 34.0751604,
    "Longitude": -118.3810936
  },
  {
    "State_Abv": "CA",
    "State": "California",
    "All_Centers": "CAEM-TX1",
    "Hospital_Name": "Eisenhower Memorial Hospital",
    "All_Centers_Hospital_Name": "CAEM-TX1 Eisenhower Memorial Hospital",
    "Address": "39000 Bob Hope Dr, Rancho Mirage, CA 92270",
    "link": "https://www.eisenhowerhealth.org/",
    "Latitude": 33.76336495,
    "Longitude": -116.4061714
  },
  {
    "State_Abv": "CA",
    "State": "California",
    "All_Centers": "CAGH-TX1",
    "Hospital_Name": "Scripps Green Hospital",
    "All_Centers_Hospital_Name": "CAGH-TX1 Scripps Green Hospital",
    "Address": "10666 N Torrey Pines Rd, San Diego, CA 92037",
    "link": "http://www.scripps.org/LocListSGHsdpsocial-gmb",
    "Latitude": 32.89631765,
    "Longitude": -117.2426391
  },
  {
    "State_Abv": "CA",
    "State": "California",
    "All_Centers": "CAIM-TX1",
    "Hospital_Name": "University of California Irvine Medical Center",
    "All_Centers_Hospital_Name": "CAIM-TX1 University of California Irvine Medical Center",
    "Address": "101 The City Dr S, Orange, CA 92868",
    "link": "https://www.ucihealth.org/",
    "Latitude": 33.78722845,
    "Longitude": -117.8884071
  },
  {
    "State_Abv": "CA",
    "State": "California",
    "All_Centers": "CAKP-TX1",
    "Hospital_Name": "Kaiser Permanente-San Francisco Medical Center",
    "All_Centers_Hospital_Name": "CAKP-TX1 Kaiser Permanente-San Francisco Medical Center",
    "Address": "2425 Geary Blvd, San Francisco, CA 94115",
    "link": "https://healthy.kaiserpermanente.org/northern-california/facilities/San-Francisco-Medical-Center-100328",
    "Latitude": 37.7828619,
    "Longitude": -122.4406591
  },
  {
    "State_Abv": "CA",
    "State": "California",
    "All_Centers": "CALA-TX1",
    "Hospital_Name": "Harbor UCLA Medical Center",
    "All_Centers_Hospital_Name": "CALA-TX1 Harbor UCLA Medical Center",
    "Address": "1000 W Carson St, Torrance, CA 90502",
    "link": "http://www.harbor-ucla.org/",
    "Latitude": 33.8314751,
    "Longitude": -118.3090998
  },
  {
    "State_Abv": "CA",
    "State": "California",
    "All_Centers": "CALB-TX1",
    "Hospital_Name": "St Mary Medical Center",
    "All_Centers_Hospital_Name": "CALB-TX1 St Mary Medical Center",
    "Address": "1043 Elm Ave Ste 300, Long Beach, CA 90813",
    "link": "https://locations.dignityhealth.org/emergency-medicine-st-mary-medical-center-long-beach?utm_source=LocalSearch&utm_medium=Facility&utm_campaign=SouthernCalifornia&utm_term=St.MaryMedicalCenterLongBeach-EmergencyRoom&y_source=1_ODczNzg0Ni03MTUtbG9jYXRpb24ud2Vic2l0ZQ%3D%3D",
    "Latitude": 33.78017371,
    "Longitude": -118.1883568
  },
  {
    "State_Abv": "CA",
    "State": "California",
    "All_Centers": "CALL-TX1",
    "Hospital_Name": "Loma Linda University Medical Center",
    "All_Centers_Hospital_Name": "CALL-TX1 Loma Linda University Medical Center",
    "Address": "11234 Anderson St, Loma Linda, CA 92354",
    "link": "https://lluh.org/?utm_source=google-local&utm_medium=organic&utm_campaign=yext",
    "Latitude": 34.04911185,
    "Longitude": -117.2634355
  },
  {
    "State_Abv": "CA",
    "State": "California",
    "All_Centers": "CAMB-TX1",
    "Hospital_Name": "UCSF Medical Center at Mission Bay",
    "All_Centers_Hospital_Name": "CAMB-TX1 UCSF Medical Center at Mission Bay",
    "Address": "1825 4th St, San Francisco, CA 94158",
    "link": "https://www.ucsfhealth.org/locations/mission-bay",
    "Latitude": 37.765642,
    "Longitude": -122.3897377
  },
  {
    "State_Abv": "CA",
    "State": "California",
    "All_Centers": "CAMH-TX1",
    "Hospital_Name": "Santa Rosa Memorial Hospital",
    "All_Centers_Hospital_Name": "CAMH-TX1 Santa Rosa Memorial Hospital",
    "Address": "1287 Fulton Rd, Santa Rosa, CA 95401",
    "link": "http://www.stjoesonoma.org/?y_source=1_ODI0NjgwOC03MTUtbG9jYXRpb24ud2Vic2l0ZQ%3D%3D",
    "Latitude": 38.4504283,
    "Longitude": -122.7715109
  },
  {
    "State_Abv": "CA",
    "State": "California",
    "All_Centers": "CAPC-TX1",
    "Hospital_Name": "Lucile Salter Packard Children's Hospital at Stanford",
    "All_Centers_Hospital_Name": "CAPC-TX1 Lucile Salter Packard Children's Hospital at Stanford",
    "Address": "725 Welch Rd, Palo Alto, CA 94304",
    "link": "https://www.stanfordchildrens.org/?utm_source=local&utm_medium=Yext&utm_campaign=GMB&y_source=1_MTY1NzU0NDYtNzE1LWxvY2F0aW9uLmdvb2dsZV93ZWJzaXRlX292ZXJyaWRl",
    "Latitude": 37.43615675,
    "Longitude": -122.175251
  },
  {
    "State_Abv": "CA",
    "State": "California",
    "All_Centers": "CAPM-TX1",
    "Hospital_Name": "California Pacific Medical Center-Van Ness Campus",
    "All_Centers_Hospital_Name": "CAPM-TX1 California Pacific Medical Center-Van Ness Campus",
    "Address": "1101 Van Ness Ave, San Francisco, CA 94109",
    "link": "https://www.sutterhealth.org/find-location/facility/cpmc-van-ness-campus",
    "Latitude": 37.785784,
    "Longitude": -122.421601
  },
  {
    "State_Abv": "CA",
    "State": "California",
    "All_Centers": "CARC-TX1",
    "Hospital_Name": "Riverside Community Hospital",
    "All_Centers_Hospital_Name": "CARC-TX1 Riverside Community Hospital",
    "Address": "4445 Magnolia Ave, Riverside, CA 92501",
    "link": "http://riversidecommunityhospital.com/?utm_campaign=corp_listings_mgmt&utm_source=google&utm_medium=business_listing",
    "Latitude": 33.97651725,
    "Longitude": -117.3825609
  },
  {
    "State_Abv": "CA",
    "State": "California",
    "All_Centers": "CARZ-TX1",
    "Hospital_Name": "Hoag Memorial Hospital Presbyterian",
    "All_Centers_Hospital_Name": "CARZ-TX1 Hoag Memorial Hospital Presbyterian",
    "Address": "1 Hoag Dr, Newport Beach, CA 92663",
    "link": "https://www.hoag.org/locations/hoag-hospital-newport-beach/?utm_source=google&utm_medium=local&utm_content=hh-nb",
    "Latitude": 33.62465606,
    "Longitude": -117.9297215
  },
  {
    "State_Abv": "CA",
    "State": "California",
    "All_Centers": "CASB-TX1",
    "Hospital_Name": "Arrowhead Regional Medical Center",
    "All_Centers_Hospital_Name": "CASB-TX1 Arrowhead Regional Medical Center",
    "Address": "400 N Pepper Ave, Colton, CA 92324",
    "link": "https://www.arrowheadregional.org/",
    "Latitude": 34.076434,
    "Longitude": -117.352826
  },
  {
    "State_Abv": "CA",
    "State": "California",
    "All_Centers": "CASC-TX1",
    "Hospital_Name": "Los Angeles County University of Southern California Medical Center",
    "All_Centers_Hospital_Name": "CASC-TX1 Los Angeles County University of Southern California Medical Center",
    "Address": "2051 Marengo St, Los Angeles, CA 90033",
    "link": "http://www.lacusc.org/",
    "Latitude": 34.05928145,
    "Longitude": -118.2092188
  },
  {
    "State_Abv": "CA",
    "State": "California",
    "All_Centers": "CASD-TX1",
    "Hospital_Name": "University of California San Diego Medical Center",
    "All_Centers_Hospital_Name": "CASD-TX1 University of California San Diego Medical Center",
    "Address": "9300 Campus Point Dr, La Jolla, CA 92037",
    "link": "https://healthlocations.ucsd.edu/la-jolla/9400-campus-point-drive?utm_source=googlemybusiness&utm_medium=listings",
    "Latitude": 32.87803826,
    "Longitude": -117.2255213
  },
  {
    "State_Abv": "CA",
    "State": "California",
    "All_Centers": "CASF-TX1",
    "Hospital_Name": "University of California San Francisco Medical Center",
    "All_Centers_Hospital_Name": "CASF-TX1 University of California San Francisco Medical Center",
    "Address": "505 Parnassus Ave, San Francisco, CA 94143",
    "link": "https://www.ucsfhealth.org/",
    "Latitude": 37.76307,
    "Longitude": -122.4574027
  },
  {
    "State_Abv": "CA",
    "State": "California",
    "All_Centers": "CASG-TX1",
    "Hospital_Name": "Sutter Medical Center Sacramento",
    "All_Centers_Hospital_Name": "CASG-TX1 Sutter Medical Center Sacramento",
    "Address": "2825 Capitol Ave, Sacramento, CA 95816",
    "link": "http://www.sutterhealth.org/",
    "Latitude": 38.5715245,
    "Longitude": -121.4687327
  },
  {
    "State_Abv": "CA",
    "State": "California",
    "All_Centers": "CASH-TX1",
    "Hospital_Name": "Sharp Memorial Hospital",
    "All_Centers_Hospital_Name": "CASH-TX1 Sharp Memorial Hospital",
    "Address": "7901 Frost St, San Diego, CA 92123",
    "link": "https://www.sharp.com/hospitals/memorial/?utm_source=google&utm_medium=organic&utm_campaign=yext",
    "Latitude": 32.79969815,
    "Longitude": -117.1543535
  },
  {
    "State_Abv": "CA",
    "State": "California",
    "All_Centers": "CASJ-TX1",
    "Hospital_Name": "Saint Joseph Hospital",
    "All_Centers_Hospital_Name": "CASJ-TX1 Saint Joseph Hospital",
    "Address": "1100 W Stewart Dr, Orange, CA 92868",
    "link": "https://www.providence.org/locations/st-joseph-hospital-orange?y_source=1_MTUzNTQ1MTYtNzE1LWxvY2F0aW9uLmdvb2dsZV93ZWJzaXRlX292ZXJyaWRl#llaid=2509",
    "Latitude": 33.78213355,
    "Longitude": -117.8640264
  },
  {
    "State_Abv": "CA",
    "State": "California",
    "All_Centers": "CASM-TX1",
    "Hospital_Name": "University of California Davis Medical Center",
    "All_Centers_Hospital_Name": "CASM-TX1 University of California Davis Medical Center",
    "Address": "2315 Stockton Blvd, Sacramento, CA 95817",
    "link": "http://www.ucdmc.ucdavis.edu/medicalcenter/",
    "Latitude": 38.5526924,
    "Longitude": -121.45179
  },
  {
    "State_Abv": "CA",
    "State": "California",
    "All_Centers": "CASU-TX1",
    "Hospital_Name": "Stanford Health Care",
    "All_Centers_Hospital_Name": "CASU-TX1 Stanford Health Care",
    "Address": "6475 Camden Ave, San Jose, CA 95120",
    "link": "https://stanfordhealthcare.org/",
    "Latitude": 37.220664,
    "Longitude": -121.865107
  },
  {
    "State_Abv": "CA",
    "State": "California",
    "All_Centers": "CASV-TX1",
    "Hospital_Name": "St. Vincent Medical Center",
    "All_Centers_Hospital_Name": "CASV-TX1 St. Vincent Medical Center",
    "Address": "201 S Alvarado St # 311, Los Angeles, CA 90057",
    "link": "https://stvincent.verity.org/",
    "Latitude": 34.063823,
    "Longitude": -118.272234
  },
  {
    "State_Abv": "CA",
    "State": "California",
    "All_Centers": "CAUC-TX1",
    "Hospital_Name": "University of California at Los Angeles Medical Center",
    "All_Centers_Hospital_Name": "CAUC-TX1 University of California at Los Angeles Medical Center",
    "Address": "757 Westwood Plaza, Los Angeles, CA 90095",
    "link": "https://www.uclahealth.org/reagan?utm_source=google&utm_medium=Yext",
    "Latitude": 34.0664646,
    "Longitude": -118.4465073
  },
  {
    "State_Abv": "CA",
    "State": "California",
    "All_Centers": "CAUH-TX1",
    "Hospital_Name": "Keck Hospital of USC",
    "All_Centers_Hospital_Name": "CAUH-TX1 Keck Hospital of USC",
    "Address": "1500 San Pablo St, Los Angeles, CA 90033",
    "link": "https://www.keckmedicine.org/about-keck-medicine/keck-hospital-of-usc/",
    "Latitude": 34.0627257,
    "Longitude": -118.2018882
  },
  {
    "State_Abv": "CA",
    "State": "California",
    "All_Centers": "CAWM-TX1",
    "Hospital_Name": "Western Medical Center",
    "All_Centers_Hospital_Name": "CAWM-TX1 Western Medical Center",
    "Address": "3033 W Orange Ave, Anaheim, CA 92804",
    "link": "http://www.westanaheimmedctr.com/",
    "Latitude": 33.82562935,
    "Longitude": -117.9951404
  },
  {
    "State_Abv": "CO",
    "State": "Colorado",
    "All_Centers": "COCH-TX1",
    "Hospital_Name": "Children's Hospital Colorado",
    "All_Centers_Hospital_Name": "COCH-TX1 Children's Hospital Colorado",
    "Address": "13123 E 16th Ave, Aurora, CO 80045",
    "link": "https://www.childrenscolorado.org/locations/anschutz-medical-campus-aurora/?utm_source=google&utm_medium=local&utm_campaign=localmaps&utm_content=100",
    "Latitude": 39.7422167,
    "Longitude": -104.8361527
  },
  {
    "State_Abv": "CO",
    "State": "Colorado",
    "All_Centers": "COMH-TX1",
    "Hospital_Name": "Memorial Hospital",
    "All_Centers_Hospital_Name": "COMH-TX1 Memorial Hospital",
    "Address": "4050 Briargate Pkwy, Colorado Springs, CO 80920",
    "link": "https://www.uchealth.org/locations/uchealth-memorial-hospital-north/",
    "Latitude": 38.9678136,
    "Longitude": -104.7541063
  },
  {
    "State_Abv": "CO",
    "State": "Colorado",
    "All_Centers": "COPM-TX1",
    "Hospital_Name": "Centura Transplant",
    "All_Centers_Hospital_Name": "COPM-TX1 Centura Transplant",
    "Address": "2525 S Downing St, Denver, CO 80210",
    "link": "https://www.centura.org/locations/centura-transplant?utm_source=yext&utm_medium=organic_google&utm_term=TRANSPLANT_CENTER_AT_PORTER&utm_content=facilities_landing_page",
    "Latitude": 39.6699704,
    "Longitude": -104.9758832
  },
  {
    "State_Abv": "CO",
    "State": "Colorado",
    "All_Centers": "COSL-TX1",
    "Hospital_Name": "Presbyterian/St Luke's Medical Center",
    "All_Centers_Hospital_Name": "COSL-TX1 Presbyterian/St Luke's Medical Center",
    "Address": "1719 E 19th Ave, Denver, CO 80218",
    "link": "https://healthonecares.com/locations/presbyterian-st-lukes?utm_campaign=corp_listings_mgmt&utm_source=google&utm_medium=business_listing",
    "Latitude": 39.74715715,
    "Longitude": -104.9670967
  },
  {
    "State_Abv": "CO",
    "State": "Colorado",
    "All_Centers": "COUC-TX1",
    "Hospital_Name": "University of Colorado Hospital/Health Science Center",
    "All_Centers_Hospital_Name": "COUC-TX1 University of Colorado Hospital/Health Science Center",
    "Address": "1620 N Gaylord St #1207, Denver, CO 80206",
    "link": "http://www.cuanschutz.edu/",
    "Latitude": 39.74202069,
    "Longitude": -104.9609037
  },
  {
    "State_Abv": "CT",
    "State": "Connecticut",
    "All_Centers": "CTHH-TX1",
    "Hospital_Name": "Hartford Hospital",
    "All_Centers_Hospital_Name": "CTHH-TX1 Hartford Hospital",
    "Address": "80 Seymour St, Hartford, CT 06106",
    "link": "https://hartfordhospital.org/",
    "Latitude": 41.7544777,
    "Longitude": -72.6796497
  },
  {
    "State_Abv": "CT",
    "State": "Connecticut",
    "All_Centers": "CTYN-TX1",
    "Hospital_Name": "Yale New Haven Hospital",
    "All_Centers_Hospital_Name": "CTYN-TX1 Yale New Haven Hospital",
    "Address": "20 York St, New Haven, CT 06510",
    "link": "https://www.ynhh.org/locations/new-haven-20-york-street.aspx",
    "Latitude": 41.3046035,
    "Longitude": -72.9355941
  },
  {
    "State_Abv": "DC",
    "State": "District of Columbia",
    "All_Centers": "DCCH-TX1",
    "Hospital_Name": "Children's National Medical Center",
    "All_Centers_Hospital_Name": "DCCH-TX1 Children's National Medical Center",
    "Address": "111 Michigan Ave NW, Washington, DC 20010",
    "link": "https://childrensnational.org/",
    "Latitude": 38.927021,
    "Longitude": -77.01397879
  },
  {
    "State_Abv": "DC",
    "State": "District of Columbia",
    "All_Centers": "DCGU-TX1",
    "Hospital_Name": "Medstar Georgetown Transplant Institute",
    "All_Centers_Hospital_Name": "DCGU-TX1 Medstar Georgetown Transplant Institute",
    "Address": "2629 Riva Rd Suite 110, Annapolis, MD 21401",
    "link": "http://www.medstargeorgetown.org/",
    "Latitude": 38.9499688,
    "Longitude": -76.5877747
  },
  {
    "State_Abv": "DC",
    "State": "District of Columbia",
    "All_Centers": "DCGW-TX1",
    "Hospital_Name": "George Washington University Hospital",
    "All_Centers_Hospital_Name": "DCGW-TX1 George Washington University Hospital",
    "Address": "900 23rd St NW, Washington, DC 20037",
    "link": "https://www.gwhospital.com/?utm_source=google-business&utm_medium=organic&utm_campaign=homepage",
    "Latitude": 38.9014106,
    "Longitude": -77.05060019
  },
  {
    "State_Abv": "DC",
    "State": "District of Columbia",
    "All_Centers": "DCHU-TX1",
    "Hospital_Name": "Howard University Hospital",
    "All_Centers_Hospital_Name": "DCHU-TX1 Howard University Hospital",
    "Address": "2041 Georgia Ave NW, Washington, DC 20060",
    "link": "http://huhealthcare.com/",
    "Latitude": 38.91783385,
    "Longitude": -77.0201005
  },
  {
    "State_Abv": "DC",
    "State": "District of Columbia",
    "All_Centers": "DCWH-TX1",
    "Hospital_Name": "Washington Hospital Center",
    "All_Centers_Hospital_Name": "DCWH-TX1 Washington Hospital Center",
    "Address": "110 Irving St NW, Washington, DC 20010",
    "link": "http://www.medstarwashington.org/",
    "Latitude": 38.9287492,
    "Longitude": -77.01476928
  },
  {
    "State_Abv": "DC",
    "State": "District of Columbia",
    "All_Centers": "DCWR-TX1",
    "Hospital_Name": "Walter Reed National Military Medical Center at Bethesda",
    "All_Centers_Hospital_Name": "DCWR-TX1 Walter Reed National Military Medical Center at Bethesda",
    "Address": "4494 Palmer Rd N, Bethesda, MD 20814",
    "link": "https://tricare.mil/mtf/Walterreed",
    "Latitude": 39.0037945,
    "Longitude": -77.0934061
  },
  {
    "State_Abv": "DE",
    "State": "Delaware",
    "All_Centers": "DEAI-TX1",
    "Hospital_Name": "Alfred I duPont Hospital for Children",
    "All_Centers_Hospital_Name": "DEAI-TX1 Alfred I duPont Hospital for Children",
    "Address": "1600 Rockland Rd, Wilmington, DE 19803",
    "link": "https://www.nemours.org/locations/wilmington-ai-dupont-childrens-hospital.html?utm_source=GMB&utm_medium=Yext&utm_content=OS2150806010100&external_id=OS2150806010100",
    "Latitude": 39.77972505,
    "Longitude": -75.55504102
  },
  {
    "State_Abv": "DE",
    "State": "Delaware",
    "All_Centers": "DECC-TX1",
    "Hospital_Name": "Christiana Care Health Services",
    "All_Centers_Hospital_Name": "DECC-TX1 Christiana Care Health Services",
    "Address": "501 W 14th St #3170, Wilmington, DE 19801",
    "link": "https://christianacare.org/",
    "Latitude": 39.75072721,
    "Longitude": -75.54957463
  },
  {
    "State_Abv": "FL",
    "State": "Florida",
    "All_Centers": "FLAC-TX1",
    "Hospital_Name": "Johns Hopkins All Children's Hospital",
    "All_Centers_Hospital_Name": "FLAC-TX1 Johns Hopkins All Children's Hospital",
    "Address": "501 6th Ave S, St. Petersburg, FL 33701",
    "link": "https://www.hopkinsallchildrens.org/",
    "Latitude": 27.76496205,
    "Longitude": -82.64059775
  },
  {
    "State_Abv": "FL",
    "State": "Florida",
    "All_Centers": "FLBC-TX1",
    "Hospital_Name": "Broward Health Medical Center",
    "All_Centers_Hospital_Name": "FLBC-TX1 Broward Health Medical Center",
    "Address": "1600 S Andrews Ave, Fort Lauderdale, FL 33316",
    "link": "https://www.browardhealth.org/",
    "Latitude": 26.1027303,
    "Longitude": -80.14116662
  },
  {
    "State_Abv": "FL",
    "State": "Florida",
    "All_Centers": "FLBF-TX1",
    "Hospital_Name": "Bert Fish Medical Center",
    "All_Centers_Hospital_Name": "FLBF-TX1 Bert Fish Medical Center",
    "Address": "600 Palmetto St, New Smyrna Beach, FL 32168",
    "link": "",
    "Latitude": 29.019669,
    "Longitude": -80.922335
  },
  {
    "State_Abv": "FL",
    "State": "Florida",
    "All_Centers": "FLCC-TX1",
    "Hospital_Name": "Cleveland Clinic Florida Weston",
    "All_Centers_Hospital_Name": "FLCC-TX1 Cleveland Clinic Florida Weston",
    "Address": "1825 N Corporate Lakes Blvd, Weston, FL 33326",
    "link": "https://my.clevelandclinic.org/locations/directions/203-cleveland-clinic-florida",
    "Latitude": 26.09598125,
    "Longitude": -80.36910924
  },
  {
    "State_Abv": "FL",
    "State": "Florida",
    "All_Centers": "FLFH-TX1",
    "Hospital_Name": "AdventHealth Orlando",
    "All_Centers_Hospital_Name": "FLFH-TX1 AdventHealth Orlando",
    "Address": "601 E Rollins St Suite 400, Orlando, FL 32803",
    "link": "https://www.adventhealth.com/hospital/adventhealth-orlando",
    "Latitude": 28.5735429,
    "Longitude": -81.3692095
  },
  {
    "State_Abv": "FL",
    "State": "Florida",
    "All_Centers": "FLFR-TX1",
    "Hospital_Name": "Gulf Coast Medical Center",
    "All_Centers_Hospital_Name": "FLFR-TX1 Gulf Coast Medical Center",
    "Address": "449 W 23rd St, Panama City, FL 32405",
    "link": "http://gcmc-pc.com/?utm_campaign=corp_listings_mgmt&utm_source=google&utm_medium=business_listing",
    "Latitude": 30.1870842,
    "Longitude": -85.66501823
  },
  {
    "State_Abv": "FL",
    "State": "Florida",
    "All_Centers": "FLHM-TX1",
    "Hospital_Name": "Halifax Medical Center",
    "All_Centers_Hospital_Name": "FLHM-TX1 Halifax Medical Center",
    "Address": "303 N Clyde Morris Blvd, Daytona Beach, FL 32114",
    "link": "https://bit.ly/medical-center-daytona",
    "Latitude": 29.20140485,
    "Longitude": -81.05413869
  },
  {
    "State_Abv": "FL",
    "State": "Florida",
    "All_Centers": "FLJD-TX1",
    "Hospital_Name": "Memorial Regional Hospital/Joe DiMaggio Children's Hospital",
    "All_Centers_Hospital_Name": "FLJD-TX1 Memorial Regional Hospital/Joe DiMaggio Children's Hospital",
    "Address": "1005 Joe DiMaggio Dr, Hollywood, FL 33021",
    "link": "http://pccsf.com/",
    "Latitude": 26.01859356,
    "Longitude": -80.17942692
  },
  {
    "State_Abv": "FL",
    "State": "Florida",
    "All_Centers": "FLJM-TX1",
    "Hospital_Name": "Jackson Memorial Hospital University of Miami School of Medicine",
    "All_Centers_Hospital_Name": "FLJM-TX1 Jackson Memorial Hospital University of Miami School of Medicine",
    "Address": "1695 NW 9th Ave #2303, Miami, FL 33136",
    "link": "http://med.miami.edu/",
    "Latitude": 25.791348,
    "Longitude": -80.209851
  },
  {
    "State_Abv": "FL",
    "State": "Florida",
    "All_Centers": "FLJT-TX1",
    "Hospital_Name": "Shands Jacksonville",
    "All_Centers_Hospital_Name": "FLJT-TX1 Shands Jacksonville",
    "Address": "655 8th St W, Jacksonville, FL 32209",
    "link": "https://ufhealthjax.org/",
    "Latitude": 30.34866871,
    "Longitude": -81.66414913
  },
  {
    "State_Abv": "FL",
    "State": "Florida",
    "All_Centers": "FLLM-TX1",
    "Hospital_Name": "Largo Medical Center",
    "All_Centers_Hospital_Name": "FLLM-TX1 Largo Medical Center",
    "Address": "201 14th St SW, Largo, FL 33770",
    "link": "http://largomedical.com/?utm_campaign=corp_listings_mgmt&utm_source=google&utm_medium=business_listing",
    "Latitude": 27.91485839,
    "Longitude": -82.802742
  },
  {
    "State_Abv": "FL",
    "State": "Florida",
    "All_Centers": "FLMC-TX1",
    "Hospital_Name": "Miami Childrens Hospital",
    "All_Centers_Hospital_Name": "FLMC-TX1 Miami Childrens Hospital",
    "Address": "3100 SW 62nd Ave, Miami, FL 33155",
    "link": "http://www.mch.com/page/EN/249/Medical-Services/Dermatology.aspx",
    "Latitude": 25.74115405,
    "Longitude": -80.29451089
  },
  {
    "State_Abv": "FL",
    "State": "Florida",
    "All_Centers": "FLMR-TX1",
    "Hospital_Name": "Memorial Regional Hospital",
    "All_Centers_Hospital_Name": "FLMR-TX1 Memorial Regional Hospital",
    "Address": "3501 Johnson St, Hollywood, FL 33021",
    "link": "https://www.mhs.net/locations/memorial-regional?utm_source=gmb&utm_medium=organic&utm_campaign=hospital_locations&utm_content=mrh",
    "Latitude": 26.01958385,
    "Longitude": -80.17993681
  },
  {
    "State_Abv": "FL",
    "State": "Florida",
    "All_Centers": "FLSH-TX1",
    "Hospital_Name": "Ascension Sacred Heart Pensacola",
    "All_Centers_Hospital_Name": "FLSH-TX1 Ascension Sacred Heart Pensacola",
    "Address": "5151 N 9th Ave, Pensacola, FL 32504",
    "link": "https://healthcare.ascension.org/Locations/Florida/FLPEN/Pensacola-Ascension-Sacred-Heart-Pensacola?utm_campaign=gmb-website&utm_medium=organic&utm_source=google",
    "Latitude": 30.4777724,
    "Longitude": -87.21136549
  },
  {
    "State_Abv": "FL",
    "State": "Florida",
    "All_Centers": "FLSJ-TX1",
    "Hospital_Name": "St Josephs Hospital",
    "All_Centers_Hospital_Name": "FLSJ-TX1 St Josephs Hospital",
    "Address": "4211 Van Dyke Rd, Lutz, FL 33558",
    "link": "https://www.baycare.org/locations/s/st-josephs-hospitalnorth--diabetes-education",
    "Latitude": 28.1277554,
    "Longitude": -82.4881384
  },
  {
    "State_Abv": "FL",
    "State": "Florida",
    "All_Centers": "FLSL-TX1",
    "Hospital_Name": "Mayo Clinic Florida",
    "All_Centers_Hospital_Name": "FLSL-TX1 Mayo Clinic Florida",
    "Address": "4500 San Pablo Rd S, Jacksonville, FL 32224",
    "link": "http://www.mayoclinic.org/patient-visitor-guide/florida/campus-buildings-maps/mayo-building-hospital?mc_id=us&utm_source=yext&utm_medium=l&utm_content=feature&utm_campaign=mayoclinic&geo=national&placementsite=enterprise&invsrc=other&cauid=102372",
    "Latitude": 30.2859794,
    "Longitude": -81.4375798
  },
  {
    "State_Abv": "FL",
    "State": "Florida",
    "All_Centers": "FLTG-TX1",
    "Hospital_Name": "Tampa General Hospital",
    "All_Centers_Hospital_Name": "FLTG-TX1 Tampa General Hospital",
    "Address": "1 Tampa General Cir, Tampa, FL 33606",
    "link": "https://www.tgh.org/?utm_source=ExtNet&utm_medium=Yext",
    "Latitude": 27.9375006,
    "Longitude": -82.45889587
  },
  {
    "State_Abv": "FL",
    "State": "Florida",
    "All_Centers": "FLTO-TX1",
    "Hospital_Name": "Tallahassee Memorial Hospital",
    "All_Centers_Hospital_Name": "FLTO-TX1 Tallahassee Memorial Hospital",
    "Address": "1300 Miccosukee Rd, Tallahassee, FL 32308",
    "link": "https://www.tmh.org/",
    "Latitude": 30.45757135,
    "Longitude": -84.26103821
  },
  {
    "State_Abv": "FL",
    "State": "Florida",
    "All_Centers": "FLUF-TX1",
    "Hospital_Name": "UF Health Shands Hospital",
    "All_Centers_Hospital_Name": "FLUF-TX1 UF Health Shands Hospital",
    "Address": "1515 SW Archer Rd, Gainesville, FL 32608",
    "link": "https://ufhealth.org/shands-university-florida",
    "Latitude": 29.6389056,
    "Longitude": -82.34237223
  },
  {
    "State_Abv": "FL",
    "State": "Florida",
    "All_Centers": "FLUM-TX1",
    "Hospital_Name": "University Medical Center",
    "All_Centers_Hospital_Name": "FLUM-TX1 University Medical Center",
    "Address": "1600 SW Archer Rd, Gainesville, FL 32610",
    "link": "https://ufhealth.org/uf-health-shands-hospital",
    "Latitude": 29.6390372,
    "Longitude": -82.3450961
  },
  {
    "State_Abv": "GA",
    "State": "Georgia",
    "All_Centers": "GAEH-TX1",
    "Hospital_Name": "Children's Healthcare of Atlanta at Egleston",
    "All_Centers_Hospital_Name": "GAEH-TX1 Children's Healthcare of Atlanta at Egleston",
    "Address": "1405 Clifton Rd NE, Atlanta, GA 30322",
    "link": "https://www.choa.org/egleston?cid=20806_na1_ch-Yx_na3_na4_na5",
    "Latitude": 33.7689292,
    "Longitude": -84.33302
  },
  {
    "State_Abv": "GA",
    "State": "Georgia",
    "All_Centers": "GAEM-TX1",
    "Hospital_Name": "Emory University Hospital",
    "All_Centers_Hospital_Name": "GAEM-TX1 Emory University Hospital",
    "Address": "1364 E Clifton Rd NE, Atlanta, GA 30322",
    "link": "https://www.emoryhealthcare.org/locations/hospitals/emory-university-hospital/index.html?hcmacid=a0Z1P00000GmrDb&utm_campaign=locations_fy21&utm_source=gmb&utm_medium=referral&utm_content=gmb_locations",
    "Latitude": 33.7689292,
    "Longitude": -84.33302
  },
  {
    "State_Abv": "GA",
    "State": "Georgia",
    "All_Centers": "GAMC-TX1",
    "Hospital_Name": "AU Medical Center, Inc.",
    "All_Centers_Hospital_Name": "GAMC-TX1 AU Medical Center, Inc.",
    "Address": "1120 15th St, Augusta, GA 30912",
    "link": "http://www.augustahealth.org/",
    "Latitude": 33.47110005,
    "Longitude": -81.98981675
  },
  {
    "State_Abv": "GA",
    "State": "Georgia",
    "All_Centers": "GAPH-TX1",
    "Hospital_Name": "Piedmont Hospital",
    "All_Centers_Hospital_Name": "GAPH-TX1 Piedmont Hospital",
    "Address": "1968 Peachtree Rd NW, Atlanta, GA 30309",
    "link": "https://www.piedmont.org/locations/piedmont-atlanta/pah-home?utm_source=directorylisting&utm_medium=seo&utm_campaign=10223&y_source=1_MTI5OTY4MzYtNzE1LWxvY2F0aW9uLmdvb2dsZV93ZWJzaXRlX292ZXJyaWRl",
    "Latitude": 33.80855411,
    "Longitude": -84.39363936
  },
  {
    "State_Abv": "GA",
    "State": "Georgia",
    "All_Centers": "GASJ-TX1",
    "Hospital_Name": "Saint Joseph's Hospital of Atlanta",
    "All_Centers_Hospital_Name": "GASJ-TX1 Saint Joseph's Hospital of Atlanta",
    "Address": "5665 Peachtree Dunwoody Rd, Atlanta, GA 30342",
    "link": "https://www.emoryhealthcare.org/locations/hospitals/emory-saint-josephs-hospital/index.html?hcmacid=a0Z1P00000GmrDb&utm_campaign=locations_fy21&utm_source=gmb&utm_medium=referral&utm_content=gmb_locations",
    "Latitude": 33.8553449,
    "Longitude": -84.3579913
  },
  {
    "State_Abv": "GA",
    "State": "Georgia",
    "All_Centers": "GAUH-TX1",
    "Hospital_Name": "University Hospital",
    "All_Centers_Hospital_Name": "GAUH-TX1 University Hospital",
    "Address": "1350 Walton Way, Augusta, GA 30901",
    "link": "http://www.universityhealth.org/",
    "Latitude": 33.47126795,
    "Longitude": -81.98237339
  },
  {
    "State_Abv": "HI",
    "State": "Hawaii",
    "All_Centers": "HIQM-TX1",
    "Hospital_Name": "The Queen's Medical Center",
    "All_Centers_Hospital_Name": "HIQM-TX1 The Queen's Medical Center",
    "Address": "1301 Punchbowl St, Honolulu, HI 96813",
    "link": "http://www.queensmedicalcenter.org/",
    "Latitude": 21.3081127,
    "Longitude": -157.8540931
  },
  {
    "State_Abv": "HI",
    "State": "Hawaii",
    "All_Centers": "HISF-TX1",
    "Hospital_Name": "Hawaii Medical Center East",
    "All_Centers_Hospital_Name": "HISF-TX1 Hawaii Medical Center East",
    "Address": "850 W Hind Dr, Honolulu, HI 96821",
    "link": "https://www.easthawaiihealthclinics.org/",
    "Latitude": 21.27881807,
    "Longitude": -157.7552982
  },
  {
    "State_Abv": "IA",
    "State": "Idaho",
    "All_Centers": "IAIM-TX1",
    "Hospital_Name": "Iowa Methodist Medical Center",
    "All_Centers_Hospital_Name": "IAIM-TX1 Iowa Methodist Medical Center",
    "Address": "1215 Pleasant St UNIT 206, Des Moines, IA 50309",
    "link": "https://www.unitypoint.org/desmoines/clinic.aspx?id=886?utm_source=gmb&utm_medium=web&utm_campaign=brandify",
    "Latitude": 41.58966055,
    "Longitude": -93.63491609
  },
  {
    "State_Abv": "IA",
    "State": "Idaho",
    "All_Centers": "IAIV-TX1",
    "Hospital_Name": "University of Iowa Hospitals and Clinics Transplant Programs",
    "All_Centers_Hospital_Name": "IAIV-TX1 University of Iowa Hospitals and Clinics Transplant Programs",
    "Address": "200 Hawkins Dr, Iowa City, IA 52242",
    "link": "https://uihc.org/",
    "Latitude": 41.6584652,
    "Longitude": -91.54927147
  },
  {
    "State_Abv": "IA",
    "State": "Idaho",
    "All_Centers": "IAMH-TX1",
    "Hospital_Name": "MercyOne Des Moines Transplant Center",
    "All_Centers_Hospital_Name": "IAMH-TX1 MercyOne Des Moines Transplant Center",
    "Address": "East Tower, 1111 6th Ave, Des Moines, IA 50314",
    "link": "https://www.mercyone.org/desmoines/location/mercyone-des-moines-medical-center-1",
    "Latitude": 41.59857925,
    "Longitude": -93.62277408
  },
  {
    "State_Abv": "IA",
    "State": "Idaho",
    "All_Centers": "IAVA-TX1",
    "Hospital_Name": "The Iowa City VA Health Care System",
    "All_Centers_Hospital_Name": "IAVA-TX1 The Iowa City VA Health Care System",
    "Address": "601 US-6 W, Iowa City, IA 52246",
    "link": "http://www.iowacity.va.gov/",
    "Latitude": 41.6642319,
    "Longitude": -91.5489717
  },
  {
    "State_Abv": "IL",
    "State": "Illinois",
    "All_Centers": "ILCH-TX1",
    "Hospital_Name": "Advocate Christ Medical Center",
    "All_Centers_Hospital_Name": "ILCH-TX1 Advocate Christ Medical Center",
    "Address": "4440 W 95th St, Oak Lawn, IL 60453",
    "link": "http://locations.advocatehealth.com",
    "Latitude": 41.7235705,
    "Longitude": -87.732089
  },
  {
    "State_Abv": "IL",
    "State": "Illinois",
    "All_Centers": "ILCM-TX1",
    "Hospital_Name": "Ann & Robert H. Lurie Children's Hospital of Chicago",
    "All_Centers_Hospital_Name": "ILCM-TX1 Ann & Robert H. Lurie Children's Hospital of Chicago",
    "Address": "225 E Chicago Ave, Chicago, IL 60611",
    "link": "https://www.luriechildrens.org/",
    "Latitude": 41.89624405,
    "Longitude": -87.6218314
  },
  {
    "State_Abv": "IL",
    "State": "Illinois",
    "All_Centers": "ILEH-TX1",
    "Hospital_Name": "Evanston Hospital",
    "All_Centers_Hospital_Name": "ILEH-TX1 Evanston Hospital",
    "Address": "2650 Ridge Ave, Evanston, IL 60201",
    "link": "http://www.northshore.org/",
    "Latitude": 42.066132,
    "Longitude": -87.68429042
  },
  {
    "State_Abv": "IL",
    "State": "Illinois",
    "All_Centers": "ILLU-TX1",
    "Hospital_Name": "Loyola University Medical Center",
    "All_Centers_Hospital_Name": "ILLU-TX1 Loyola University Medical Center",
    "Address": "2160 S 1st Ave, Maywood, IL 60153",
    "link": "https://www.loyolamedicine.org/locations/loyola-university-medical-center",
    "Latitude": 41.86517832,
    "Longitude": -87.83349118
  },
  {
    "State_Abv": "IL",
    "State": "Illinois",
    "All_Centers": "ILLU-VA1",
    "Hospital_Name": "Hines Veterans Administration Medical Center",
    "All_Centers_Hospital_Name": "ILLU-VA1 Hines Veterans Administration Medical Center",
    "Address": "5000 5th Ave, Hines, IL 60141",
    "link": "https://www.hines.va.gov/",
    "Latitude": 41.8579494,
    "Longitude": -87.8370827
  },
  {
    "State_Abv": "IL",
    "State": "Illinois",
    "All_Centers": "ILMM-TX1",
    "Hospital_Name": "Memorial Medical Center",
    "All_Centers_Hospital_Name": "ILMM-TX1 Memorial Medical Center",
    "Address": "701 N 1st St, Springfield, IL 62781",
    "link": "https://www.memorialmedical.com/",
    "Latitude": 39.81015825,
    "Longitude": -89.65455093
  },
  {
    "State_Abv": "IL",
    "State": "Illinois",
    "All_Centers": "ILNM-TX1",
    "Hospital_Name": "Northwestern Memorial Hospital",
    "All_Centers_Hospital_Name": "ILNM-TX1 Northwestern Memorial Hospital",
    "Address": "251 E Huron St, Chicago, IL 60611",
    "link": "https://www.nm.org/locations/northwestern-memorial-hospital?utm_source=yext&utm_medium=gmb+location&utm_campaign=online+listings&y_source=1_ODIyOTk0Ny03MTUtbG9jYXRpb24uZ29vZ2xlX3dlYnNpdGVfb3ZlcnJpZGU%3D",
    "Latitude": 41.89498135,
    "Longitude": -87.62153624
  },
  {
    "State_Abv": "IL",
    "State": "Illinois",
    "All_Centers": "ILPL-TX1",
    "Hospital_Name": "Rush University Medical Center",
    "All_Centers_Hospital_Name": "ILPL-TX1 Rush University Medical Center",
    "Address": "1620 W Harrison St, Chicago, IL 60612",
    "link": "https://www.rush.edu/schedule-appointments-online-anytime-anywhere?utm_source=listing&utm_medium=organic&utm_campaign=yext&y_source=1_ODc5MzM1Ni03MTUtbG9jYXRpb24ucmVzZXJ2YXRpb25fdXJs",
    "Latitude": 41.8738892,
    "Longitude": -87.6861602
  },
  {
    "State_Abv": "IL",
    "State": "Illinois",
    "All_Centers": "ILSF-TX1",
    "Hospital_Name": "OSF Saint Francis Medical Center",
    "All_Centers_Hospital_Name": "ILSF-TX1 OSF Saint Francis Medical Center",
    "Address": "530 NE Glen Oak Ave, Peoria, IL 61637",
    "link": "https://www.osfhealthcare.org/saint-francis/",
    "Latitude": 40.7023663,
    "Longitude": -89.58998457
  },
  {
    "State_Abv": "IL",
    "State": "Illinois",
    "All_Centers": "ILSJ-TX1",
    "Hospital_Name": "St. Johns Hospital",
    "All_Centers_Hospital_Name": "ILSJ-TX1 St. Johns Hospital",
    "Address": "800 E Carpenter St, Springfield, IL 62769",
    "link": "https://www.st-johns.org/",
    "Latitude": 39.8054159,
    "Longitude": -89.64490006
  },
  {
    "State_Abv": "IL",
    "State": "Illinois",
    "All_Centers": "ILUC-TX1",
    "Hospital_Name": "University of Chicago Medical Center",
    "All_Centers_Hospital_Name": "ILUC-TX1 University of Chicago Medical Center",
    "Address": "5841 S Maryland Ave, Chicago, IL 60637",
    "link": "https://www.uchicagomedicine.org/",
    "Latitude": 41.7883423,
    "Longitude": -87.6045824
  },
  {
    "State_Abv": "IL",
    "State": "Illinois",
    "All_Centers": "ILUI-TX1",
    "Hospital_Name": "University of Illinois Medical Center",
    "All_Centers_Hospital_Name": "ILUI-TX1 University of Illinois Medical Center",
    "Address": "1740 W Taylor St, Chicago, IL 60612",
    "link": "https://hospital.uillinois.edu/",
    "Latitude": 41.86969555,
    "Longitude": -87.67051716
  },
  {
    "State_Abv": "IL",
    "State": "Illinois",
    "All_Centers": "ILVA-TX1",
    "Hospital_Name": "Edward Hines Jr. Veterans Administration Medical Center",
    "All_Centers_Hospital_Name": "ILVA-TX1 Edward Hines Jr. Veterans Administration Medical Center",
    "Address": "5000 5th Ave, Hines, IL 60141",
    "link": "http://www.hines.va.gov/",
    "Latitude": 41.8579494,
    "Longitude": -87.8370827
  },
  {
    "State_Abv": "IN",
    "State": "Indiana",
    "All_Centers": "INIM-TX1",
    "Hospital_Name": "Indiana University Health",
    "All_Centers_Hospital_Name": "INIM-TX1 Indiana University Health",
    "Address": "3777 Frontage Rd, Michigan City, IN 46360",
    "link": "https://iuhealth.org/",
    "Latitude": 46.381339,
    "Longitude": -86.617661
  },
  {
    "State_Abv": "IN",
    "State": "Indiana",
    "All_Centers": "INIU-TX1",
    "Hospital_Name": "Indiana University Medical Center",
    "All_Centers_Hospital_Name": "INIU-TX1 Indiana University Medical Center",
    "Address": "355 W 16th St, Indianapolis, IN 46202",
    "link": "http://iuhealth.org/",
    "Latitude": 39.7879275,
    "Longitude": -86.1648091
  },
  {
    "State_Abv": "IN",
    "State": "Indiana",
    "All_Centers": "INLH-TX1",
    "Hospital_Name": "Lutheran Hospital of Fort Wayne",
    "All_Centers_Hospital_Name": "INLH-TX1 Lutheran Hospital of Fort Wayne",
    "Address": "7950 W Jefferson Blvd, Fort Wayne, IN 46804",
    "link": "https://www.lutheranhospital.com/emergency-department?utm_campaign=gmb-website&utm_medium=organic&utm_source=google",
    "Latitude": 41.0389971,
    "Longitude": -85.24971347
  },
  {
    "State_Abv": "IN",
    "State": "Indiana",
    "All_Centers": "INSV-TX1",
    "Hospital_Name": "Ascension St. Vincent Hospital",
    "All_Centers_Hospital_Name": "INSV-TX1 Ascension St. Vincent Hospital",
    "Address": "2001 W 86th St, Indianapolis, IN 46260",
    "link": "https://healthcare.ascension.org/locations/indiana/ineva/indianapolis-ascension-st-vincent-hospital-indianapolis-emergency?utm_campaign=gmb-website&utm_medium=organic&utm_source=google",
    "Latitude": 39.90614815,
    "Longitude": -86.19743986
  },
  {
    "State_Abv": "KS",
    "State": "Kansas",
    "All_Centers": "KSFW-TX1",
    "Hospital_Name": "Via Christi Hospitals Wichita, Inc.",
    "All_Centers_Hospital_Name": "KSFW-TX1 Via Christi Hospitals Wichita, Inc.",
    "Address": "Wichita, KS 67218",
    "link": "https://www.viachristi.org/location/via-christi-hospital-st-francis",
    "Latitude": 37.6922361,
    "Longitude": -97.3375448
  },
  {
    "State_Abv": "KS",
    "State": "Kansas",
    "All_Centers": "KSUK-TX1",
    "Hospital_Name": "University of Kansas Hospital",
    "All_Centers_Hospital_Name": "KSUK-TX1 University of Kansas Hospital",
    "Address": "4000 Cambridge St, Kansas City, KS 66160",
    "link": "https://www.kansashealthsystem.com/?utm_source=local&utm_medium=organic&utm_campaign=gmb",
    "Latitude": 39.0559267,
    "Longitude": -94.6090332
  },
  {
    "State_Abv": "KY",
    "State": "Kentucky",
    "All_Centers": "KYHH-TX1",
    "Hospital_Name": "Columbia Audubon Hospital",
    "All_Centers_Hospital_Name": "KYHH-TX1 Columbia Audubon Hospital",
    "Address": "One Audubon Plaza Dr, Louisville, KY 40217",
    "link": "https://nortonaudubonhospital.com/",
    "Latitude": 38.2141911,
    "Longitude": -85.7221415
  },
  {
    "State_Abv": "KY",
    "State": "Kentucky",
    "All_Centers": "KYJH-TX1",
    "Hospital_Name": "Jewish Hospital",
    "All_Centers_Hospital_Name": "KYJH-TX1 Jewish Hospital",
    "Address": "200 Abraham Flexner Way, Louisville, KY 40202",
    "link": "https://www.uoflhealthnetwork.org/uofl-health-jewish-hospital?utm_campaign=location+lbl&utm_medium=organic&utm_source=google",
    "Latitude": 38.2513027,
    "Longitude": -85.7489155
  },
  {
    "State_Abv": "KY",
    "State": "Kentucky",
    "All_Centers": "KYKC-TX1",
    "Hospital_Name": "Norton Children's Hospital",
    "All_Centers_Hospital_Name": "KYKC-TX1 Norton Children's Hospital",
    "Address": "231 E Chestnut St, Louisville, KY 40202",
    "link": "https://nortonchildrens.com/",
    "Latitude": 38.24844765,
    "Longitude": -85.74973679
  },
  {
    "State_Abv": "KY",
    "State": "Kentucky",
    "All_Centers": "KYUK-TX1",
    "Hospital_Name": "University of Kentucky Medical Center",
    "All_Centers_Hospital_Name": "KYUK-TX1 University of Kentucky Medical Center",
    "Address": "1000 S Limestone, Lexington, KY 40536",
    "link": "https://ukhealthcare.uky.edu/?utm_campaign=website-link&utm_medium=organic&utm_source=local-listing",
    "Latitude": 38.0310772,
    "Longitude": -84.5093899
  },
  {
    "State_Abv": "LA",
    "State": "Louisiana",
    "All_Centers": "LACH-TX1",
    "Hospital_Name": "Children's Hospital",
    "All_Centers_Hospital_Name": "LACH-TX1 Children's Hospital",
    "Address": "800 Rose Street Fourth Floor, Lexington, KY 40536",
    "link": "https://ukhealthcare.uky.edu/kentucky-childrens-hospital?utm_campaign=website-link&utm_medium=organic&utm_source=local-listing",
    "Latitude": 38.032772,
    "Longitude": -84.506765
  },
  {
    "State_Abv": "LA",
    "State": "Louisiana",
    "All_Centers": "LAMC-TX1",
    "Hospital_Name": "University Medical Center",
    "All_Centers_Hospital_Name": "LAMC-TX1 University Medical Center",
    "Address": "800 Rose Street MN 150, Lexington, KY 40506",
    "link": "http://med.uky.edu/",
    "Latitude": 38.032772,
    "Longitude": -84.506765
  },
  {
    "State_Abv": "LA",
    "State": "Louisiana",
    "All_Centers": "LANO-TX1",
    "Hospital_Name": "University Hospital /Louisiana State University School of Medicine",
    "All_Centers_Hospital_Name": "LANO-TX1 University Hospital /Louisiana State University School of Medicine",
    "Address": "Skip Bertman Dr, Baton Rouge, LA 70803",
    "link": "http://www.lsu.edu/vetmed",
    "Latitude": 30.4119229,
    "Longitude": -91.1907324
  },
  {
    "State_Abv": "LA",
    "State": "Louisiana",
    "All_Centers": "LAOF-TX1",
    "Hospital_Name": "Ochsner Foundation Hospital",
    "All_Centers_Hospital_Name": "LAOF-TX1 Ochsner Foundation Hospital",
    "Address": "1514 Jefferson Highway New Orleans, LA 70121",
    "link": "https://www.ochsner.org/",
    "Latitude": 29.964975,
    "Longitude": -90.134399
  },
  {
    "State_Abv": "LA",
    "State": "Louisiana",
    "All_Centers": "LASB-TX1",
    "Hospital_Name": "Lindy Boggs Medical Center",
    "All_Centers_Hospital_Name": "LASB-TX1 Lindy Boggs Medical Center",
    "Address": "Bienville St, New Orleans, LA 70119",
    "link": "",
    "Latitude": 29.9791912,
    "Longitude": -90.1035565
  },
  {
    "State_Abv": "LA",
    "State": "Louisiana",
    "All_Centers": "LASM-TX1",
    "Hospital_Name": "Schumpert Health System",
    "All_Centers_Hospital_Name": "LASM-TX1 Schumpert Health System",
    "Address": "1 St Mary Pl, Shreveport, LA 71101",
    "link": "http://christushealthsb.org/",
    "Latitude": 32.493974,
    "Longitude": -93.751014
  },
  {
    "State_Abv": "LA",
    "State": "Louisiana",
    "All_Centers": "LASU-TX1",
    "Hospital_Name": "Louisiana State University Medical Center Shreveport",
    "All_Centers_Hospital_Name": "LASU-TX1 Louisiana State University Medical Center Shreveport",
    "Address": "1501 Kings Hwy, Shreveport, LA 71103",
    "link": "http://www.lsuhscshreveport.edu/",
    "Latitude": 32.48165557,
    "Longitude": -93.76080436
  },
  {
    "State_Abv": "LA",
    "State": "Louisiana",
    "All_Centers": "LATU-TX1",
    "Hospital_Name": "Tulane Medical Center",
    "All_Centers_Hospital_Name": "LATU-TX1 Tulane Medical Center",
    "Address": "1415 Tulane Ave, New Orleans, LA 70112",
    "link": "http://tulanehealthcare.com/?utm_campaign=corp_listings_mgmt&utm_source=google&utm_medium=business_listing",
    "Latitude": 29.9558617,
    "Longitude": -90.07629325
  },
  {
    "State_Abv": "LA",
    "State": "Louisiana",
    "All_Centers": "LAWK-TX1",
    "Hospital_Name": "Willis-Knighton Medical Center",
    "All_Centers_Hospital_Name": "LAWK-TX1 Willis-Knighton Medical Center",
    "Address": "2600 Greenwood Rd, Shreveport, LA 71103",
    "link": "http://www.wkhs.com/Locations/MedicalCenter",
    "Latitude": 32.48491885,
    "Longitude": -93.77870669
  },
  {
    "State_Abv": "MA",
    "State": "Maine",
    "All_Centers": "MABI-TX1",
    "Hospital_Name": "Beth Israel Deaconess Medical Center",
    "All_Centers_Hospital_Name": "MABI-TX1 Beth Israel Deaconess Medical Center",
    "Address": "330 Brookline Ave, Boston, MA 02215",
    "link": "https://www.bidmc.org/",
    "Latitude": 42.3397554,
    "Longitude": -71.10492182
  },
  {
    "State_Abv": "MA",
    "State": "Maine",
    "All_Centers": "MABS-TX1",
    "Hospital_Name": "Baystate Medical Center",
    "All_Centers_Hospital_Name": "MABS-TX1 Baystate Medical Center",
    "Address": "759 Chestnut St, Springfield, MA 01199",
    "link": "https://www.baystatehealth.org/locations/baystate-medical-center?utm_source=gmb&utm_medium=web&utm_campaign=brandify",
    "Latitude": 42.12152205,
    "Longitude": -72.60300615
  },
  {
    "State_Abv": "MA",
    "State": "Maine",
    "All_Centers": "MABU-TX1",
    "Hospital_Name": "Boston Medical Center",
    "All_Centers_Hospital_Name": "MABU-TX1 Boston Medical Center",
    "Address": "One Boston Medical Center Pl, Boston, MA 02118",
    "link": "http://www.bmc.org/?utm_campaign=yextbuilding&utm_source=building_listing&utm_medium=yext",
    "Latitude": 42.33417195,
    "Longitude": -71.07464492
  },
  {
    "State_Abv": "MA",
    "State": "Maine",
    "All_Centers": "MABV-TX1",
    "Hospital_Name": "Boston Veterans Administration Medical Center",
    "All_Centers_Hospital_Name": "MABV-TX1 Boston Veterans Administration Medical Center",
    "Address": "150 S Huntington Ave, Boston, MA 02130",
    "link": "http://www.va.gov/",
    "Latitude": 42.32677425,
    "Longitude": -71.10999243
  },
  {
    "State_Abv": "MA",
    "State": "Maine",
    "All_Centers": "MACH-TX1",
    "Hospital_Name": "Boston Children's Hospital",
    "All_Centers_Hospital_Name": "MACH-TX1 Boston Children's Hospital",
    "Address": "300 Longwood Ave, Boston, MA 02115",
    "link": "https://www.bostonchildrens.org/",
    "Latitude": 42.3366778,
    "Longitude": -71.10505184
  },
  {
    "State_Abv": "MA",
    "State": "Maine",
    "All_Centers": "MAHS-TX1",
    "Hospital_Name": "Beth Israel Deaconess Medical Center West Campus",
    "All_Centers_Hospital_Name": "MAHS-TX1 Beth Israel Deaconess Medical Center West Campus",
    "Address": "110 Francis St, Boston, MA 02115",
    "link": "https://www.bidmc.org/",
    "Latitude": 42.33706971,
    "Longitude": -71.10959561
  },
  {
    "State_Abv": "MA",
    "State": "Maine",
    "All_Centers": "MALC-TX1",
    "Hospital_Name": "Lahey Clinic Medical Center",
    "All_Centers_Hospital_Name": "MALC-TX1 Lahey Clinic Medical Center",
    "Address": "41 Burlington Mall Road, Burlington, MA 01805",
    "link": "https://www.lahey.org/",
    "Latitude": 42.48464385,
    "Longitude": -71.2042249
  },
  {
    "State_Abv": "MA",
    "State": "Maine",
    "All_Centers": "MAMG-TX1",
    "Hospital_Name": "Massachusetts General Hospital",
    "All_Centers_Hospital_Name": "MAMG-TX1 Massachusetts General Hospital",
    "Address": "55 Fruit St, Boston, MA 02114",
    "link": "http://www.massgeneral.org/",
    "Latitude": 42.36286045,
    "Longitude": -71.06875297
  },
  {
    "State_Abv": "MA",
    "State": "Maine",
    "All_Centers": "MANM-TX1",
    "Hospital_Name": "Tufts Medical Center",
    "All_Centers_Hospital_Name": "MANM-TX1 Tufts Medical Center",
    "Address": "800 Washington St, Boston, MA 02111",
    "link": "https://www.tuftsmedicalcenter.org/About-Us/Locations-and-Directions",
    "Latitude": 42.3494397,
    "Longitude": -71.06308468
  },
  {
    "State_Abv": "MA",
    "State": "Maine",
    "All_Centers": "MAPB-TX1",
    "Hospital_Name": "Brigham and Women's Hospital",
    "All_Centers_Hospital_Name": "MAPB-TX1 Brigham and Women's Hospital",
    "Address": "75 Francis St, Boston, MA 02115",
    "link": "https://www.brighamandwomens.org/",
    "Latitude": 42.33568,
    "Longitude": -71.10604363
  },
  {
    "State_Abv": "MA",
    "State": "Maine",
    "All_Centers": "MAUM-TX1",
    "Hospital_Name": "UMass Memorial Medical Center",
    "All_Centers_Hospital_Name": "MAUM-TX1 UMass Memorial Medical Center",
    "Address": "26 Queen St, Worcester, MA 01610",
    "link": "http://umassmemorial.org/",
    "Latitude": 42.25930925,
    "Longitude": -71.81495237
  },
  {
    "State_Abv": "MD",
    "State": "Maryland",
    "All_Centers": "MDBC-TX1",
    "Hospital_Name": "Johns Hopkins Bayview Medical Center",
    "All_Centers_Hospital_Name": "MDBC-TX1 Johns Hopkins Bayview Medical Center",
    "Address": "4940 Eastern Ave, Baltimore, MD 21224",
    "link": "https://www.hopkinsmedicine.org/johns_hopkins_bayview/?utm_source=ExtendedNetwork&utm_medium=Organic&utm_campaign=Yext&utm_content=FAD&utm_keyword=BAY",
    "Latitude": 39.29121285,
    "Longitude": -76.54906955
  },
  {
    "State_Abv": "MD",
    "State": "Maryland",
    "All_Centers": "MDJH-TX1",
    "Hospital_Name": "Johns Hopkins Hospital",
    "All_Centers_Hospital_Name": "MDJH-TX1 Johns Hopkins Hospital",
    "Address": "1800 Orleans St, Baltimore, MD 21287",
    "link": "https://www.hopkinsmedicine.org/the_johns_hopkins_hospital/",
    "Latitude": 39.2964392,
    "Longitude": -76.59239403
  },
  {
    "State_Abv": "MD",
    "State": "Maryland",
    "All_Centers": "MDNI-TX1",
    "Hospital_Name": "Warren Grant Magnuson Clinical Center/National Institutes of Health",
    "All_Centers_Hospital_Name": "MDNI-TX1 Warren Grant Magnuson Clinical Center/National Institutes of Health",
    "Address": "10 Center Dr, Bethesda, MD 20892",
    "link": "https://www.nih.gov/",
    "Latitude": 39.0016448,
    "Longitude": -77.10454224
  },
  {
    "State_Abv": "MD",
    "State": "Maryland",
    "All_Centers": "MDSG-TX1",
    "Hospital_Name": "Shady Grove Adventist Hospital",
    "All_Centers_Hospital_Name": "MDSG-TX1 Shady Grove Adventist Hospital",
    "Address": "9901 Medical Center Dr, Rockville, MD 20850",
    "link": "https://www.adventisthealthcare.com/locations/profile/shady-grove-medical-center/?utm_campaign=website-link&utm_medium=organic&utm_source=local-listing",
    "Latitude": 39.0984595,
    "Longitude": -77.19855819
  },
  {
    "State_Abv": "MD",
    "State": "Maryland",
    "All_Centers": "MDUM-TX1",
    "Hospital_Name": "University of Maryland Medical System",
    "All_Centers_Hospital_Name": "MDUM-TX1 University of Maryland Medical System",
    "Address": "250 W Pratt St, Baltimore, MD 21201",
    "link": "https://www.umms.org/?utm_campaign=website-link&utm_medium=organic&utm_source=local-listing",
    "Latitude": 39.28673275,
    "Longitude": -76.61875925
  },
  {
    "State_Abv": "ME",
    "State": "Maine",
    "All_Centers": "MEMC-TX1",
    "Hospital_Name": "Maine Medical Center",
    "All_Centers_Hospital_Name": "MEMC-TX1 Maine Medical Center",
    "Address": "22 Bramhall St, Portland, ME 04102",
    "link": "https://mainehealth.org/maine-medical-center?utm_source=google&utm_medium=local",
    "Latitude": 43.6531775,
    "Longitude": -70.27625454
  },
  {
    "State_Abv": "MI",
    "State": "Michigan",
    "All_Centers": "MIBH-TX1",
    "Hospital_Name": "William Beaumont Hospital",
    "All_Centers_Hospital_Name": "MIBH-TX1 William Beaumont Hospital",
    "Address": "Medical Office Building, 3535 W 13 Mile Rd #742, Royal Oak, MI 48073",
    "link": "http://www.moimd.com/",
    "Latitude": 42.51564985,
    "Longitude": -83.19053091
  },
  {
    "State_Abv": "MI",
    "State": "Michigan",
    "All_Centers": "MICH-TX1",
    "Hospital_Name": "Children's Hospital of Michigan",
    "All_Centers_Hospital_Name": "MICH-TX1 Children's Hospital of Michigan",
    "Address": "3950 Beaubien Blvd, Detroit, MI 48201",
    "link": "https://www.childrensdmc.org/location/detail/childrens-hospital-of-michigan-specialty-center-detroit",
    "Latitude": 42.35239529,
    "Longitude": -83.05442835
  },
  {
    "State_Abv": "MI",
    "State": "Michigan",
    "All_Centers": "MIDV-TX1",
    "Hospital_Name": "Helen DeVos Children's Hospital",
    "All_Centers_Hospital_Name": "MIDV-TX1 Helen DeVos Children's Hospital",
    "Address": "100 Michigan St NE, Grand Rapids, MI 49503",
    "link": "https://www.spectrumhealth.org/locations/spectrum-health-hospitals-helen-devos-childrens-hospital",
    "Latitude": 42.96930065,
    "Longitude": -85.66464273
  },
  {
    "State_Abv": "MI",
    "State": "Michigan",
    "All_Centers": "MIHF-TX1",
    "Hospital_Name": "Henry Ford Hospital",
    "All_Centers_Hospital_Name": "MIHF-TX1 Henry Ford Hospital",
    "Address": "2799 W Grand Blvd, Detroit, MI 48202",
    "link": "https://www.henryford.com/locations/henry-ford-hospital?utm_campaign=website-link&utm_medium=organic&utm_source=local-listing",
    "Latitude": 42.36764305,
    "Longitude": -83.0853755
  },
  {
    "State_Abv": "MI",
    "State": "Michigan",
    "All_Centers": "MIHH-TX1",
    "Hospital_Name": "Harper University Hospital Detroit Medical Center",
    "All_Centers_Hospital_Name": "MIHH-TX1 Harper University Hospital Detroit Medical Center",
    "Address": "3990 John R St, Detroit, MI 48201",
    "link": "https://www.dmc.org/locations/detail/dmc-harper-university-hospital",
    "Latitude": 42.35174595,
    "Longitude": -83.05630276
  },
  {
    "State_Abv": "MI",
    "State": "Michigan",
    "All_Centers": "MIHM-TX1",
    "Hospital_Name": "Hurley Medical Center",
    "All_Centers_Hospital_Name": "MIHM-TX1 Hurley Medical Center",
    "Address": "1 Hurley Plaza, Flint, MI 48503",
    "link": "http://www.hurleymc.com/",
    "Latitude": 43.02139551,
    "Longitude": -83.70364661
  },
  {
    "State_Abv": "MI",
    "State": "Michigan",
    "All_Centers": "MIKZ-TX1",
    "Hospital_Name": "Borgess Medical Center",
    "All_Centers_Hospital_Name": "MIKZ-TX1 Borgess Medical Center",
    "Address": "1521 Gull Rd, Kalamazoo, MI 49048",
    "link": "https://healthcare.ascension.org/Locations/Michigan/MIKAL/Kalamazoo-Ascension-Borgess-Hospital?utm_campaign=gmb-website&utm_medium=organic&utm_source=google",
    "Latitude": 42.30783985,
    "Longitude": -85.55981794
  },
  {
    "State_Abv": "MI",
    "State": "Michigan",
    "All_Centers": "MIMC-TX1",
    "Hospital_Name": "Grace Hospital",
    "All_Centers_Hospital_Name": "MIMC-TX1 Grace Hospital",
    "Address": "2725 Airview Blvd #101, Portage, MI 49002",
    "link": "https://ghospice.com/",
    "Latitude": 42.24191285,
    "Longitude": -85.55772382
  },
  {
    "State_Abv": "MI",
    "State": "Michigan",
    "All_Centers": "MISH-TX1",
    "Hospital_Name": "Spectrum Health",
    "All_Centers_Hospital_Name": "MISH-TX1 Spectrum Health",
    "Address": "100 Michigan St NE, Grand Rapids, MI 49503",
    "link": "https://www.spectrumhealth.org/locations/spectrum-health-hospitals-butterworth-hospital",
    "Latitude": 42.96930065,
    "Longitude": -85.66464273
  },
  {
    "State_Abv": "MI",
    "State": "Michigan",
    "All_Centers": "MISJ-TX1",
    "Hospital_Name": "Ascension St. John Hospital",
    "All_Centers_Hospital_Name": "MISJ-TX1 Ascension St. John Hospital",
    "Address": "22101 Moross Rd, Detroit, MI 48236",
    "link": "https://healthcare.ascension.org/Locations/Michigan/MIDET/Detroit-Ascension-St-John-Hospital?utm_campaign=gmb-website&utm_medium=organic&utm_source=google",
    "Latitude": 42.41947195,
    "Longitude": -82.91322987
  },
  {
    "State_Abv": "MI",
    "State": "Michigan",
    "All_Centers": "MISM-TX1",
    "Hospital_Name": "Mercy Health Saint Marys",
    "All_Centers_Hospital_Name": "MISM-TX1 Mercy Health Saint Marys",
    "Address": "200 Jefferson Ave SE, Grand Rapids, MI 49503",
    "link": "https://www.mercyhealth.com/location/20_Mercy_Health_Saint_Marys",
    "Latitude": 42.95837285,
    "Longitude": -85.66280337
  },
  {
    "State_Abv": "MI",
    "State": "Michigan",
    "All_Centers": "MIUM-TX1",
    "Hospital_Name": "University of Michigan Medical Center",
    "All_Centers_Hospital_Name": "MIUM-TX1 University of Michigan Medical Center",
    "Address": "1500 E Medical Center Dr, Ann Arbor, MI 48109",
    "link": "http://www.uofmhealth.org/",
    "Latitude": 42.2820788,
    "Longitude": -83.72731499
  },
  {
    "State_Abv": "MN",
    "State": "Minnesota",
    "All_Centers": "MNAC-TX1",
    "Hospital_Name": "Univ of MN Amplatz Children's Hosp",
    "All_Centers_Hospital_Name": "MNAC-TX1 Univ of MN Amplatz Children's Hosp",
    "Address": "2450 Riverside Ave, Minneapolis, MN 55454",
    "link": "https://www.mhealth.org/childrens",
    "Latitude": 44.9668321,
    "Longitude": -93.2370725
  },
  {
    "State_Abv": "MN",
    "State": "Minnesota",
    "All_Centers": "MNAN-TX1",
    "Hospital_Name": "Abbott Northwestern Hospital",
    "All_Centers_Hospital_Name": "MNAN-TX1 Abbott Northwestern Hospital",
    "Address": "800 E 28th St, Minneapolis, MN 55407",
    "link": "https://www.allinahealth.org/Abbott-Northwestern-Hospital/?utm_source=gmb&utm_medium=organic&utm_content=web-url&utm_campaign=gmb_website&utm_term=abbott_northwestern",
    "Latitude": 44.9540508,
    "Longitude": -93.26133433
  },
  {
    "State_Abv": "MN",
    "State": "Minnesota",
    "All_Centers": "MNCM-TX1",
    "Hospital_Name": "Children's Minnesota",
    "All_Centers_Hospital_Name": "MNCM-TX1 Children's Minnesota",
    "Address": "2525 Chicago Ave, Minneapolis, MN 55404",
    "link": "https://www.childrensmn.org/locations/minneapolis/?utm_source=local%20seo&utm_medium=local%20citation&utm_campaign=minneapolis%20hospital",
    "Latitude": 44.9627811,
    "Longitude": -93.2632313
  },
  {
    "State_Abv": "MN",
    "State": "Minnesota",
    "All_Centers": "MNHC-TX1",
    "Hospital_Name": "Hennepin County Medical Center",
    "All_Centers_Hospital_Name": "MNHC-TX1 Hennepin County Medical Center",
    "Address": "730 S 8th St, Minneapolis, MN 55415",
    "link": "http://www.hennepinhealthcare.org/",
    "Latitude": 44.971829,
    "Longitude": -93.2626799
  },
  {
    "State_Abv": "MN",
    "State": "Minnesota",
    "All_Centers": "MNMC-TX1",
    "Hospital_Name": "Rochester Methodist Hospital (Mayo Clinic)",
    "All_Centers_Hospital_Name": "MNMC-TX1 Rochester Methodist Hospital (Mayo Clinic)",
    "Address": "201 W Center St, Rochester, MN 55902",
    "link": "https://mayocl.in/2Rshw2c",
    "Latitude": 44.0234944,
    "Longitude": -92.4672059
  },
  {
    "State_Abv": "MN",
    "State": "Minnesota",
    "All_Centers": "MNMM-TX1",
    "Hospital_Name": "Metropolitan Mount Sinai Medical Center",
    "All_Centers_Hospital_Name": "MNMM-TX1 Metropolitan Mount Sinai Medical Center",
    "Address": "2215 Park Ave, Minneapolis, MN 55404",
    "link": "",
    "Latitude": 44.9628348,
    "Longitude": -93.2649064
  },
  {
    "State_Abv": "MN",
    "State": "Minnesota",
    "All_Centers": "MNMV-TX1",
    "Hospital_Name": "Veterans Administration Medical Center Minneapolis",
    "All_Centers_Hospital_Name": "MNMV-TX1 Veterans Administration Medical Center Minneapolis",
    "Address": "1 Veterans Dr, Minneapolis, MN 55417",
    "link": "http://www.minneapolis.va.gov/",
    "Latitude": 44.90181035,
    "Longitude": -93.20579906
  },
  {
    "State_Abv": "MN",
    "State": "Minnesota",
    "All_Centers": "MNSM-TX1",
    "Hospital_Name": "Saint Marys Hospital (Mayo Clinic)",
    "All_Centers_Hospital_Name": "MNSM-TX1 Saint Marys Hospital (Mayo Clinic)",
    "Address": "1216 2nd St SW, Rochester, MN 55902",
    "link": "https://mayocl.in/34YofF3",
    "Latitude": 44.0192805,
    "Longitude": -92.48098329
  },
  {
    "State_Abv": "MN",
    "State": "Minnesota",
    "All_Centers": "MNUM-TX1",
    "Hospital_Name": "University of Minnesota Medical Center, Fairview",
    "All_Centers_Hospital_Name": "MNUM-TX1 University of Minnesota Medical Center, Fairview",
    "Address": "500 SE Harvard St, Minneapolis, MN 55455",
    "link": "https://www.mhealth.org/locations/buildings/east-bank-hospital-ummc",
    "Latitude": 44.97101265,
    "Longitude": -93.23144467
  },
  {
    "State_Abv": "MO",
    "State": "Missouri",
    "All_Centers": "MOBH-TX1",
    "Hospital_Name": "Barnes-Jewish Hospital",
    "All_Centers_Hospital_Name": "MOBH-TX1 Barnes-Jewish Hospital",
    "Address": "1 Barnes Jewish Hospital Plaza, St. Louis, MO 63110",
    "link": "http://www.barnesjewish.org/?utm_medium=organic&utm_source=listing&utm_campaign=bjh",
    "Latitude": 38.63734255,
    "Longitude": -90.26432457
  },
  {
    "State_Abv": "MO",
    "State": "Missouri",
    "All_Centers": "MOCG-TX1",
    "Hospital_Name": "Cardinal Glennon Children's Hospital",
    "All_Centers_Hospital_Name": "MOCG-TX1 Cardinal Glennon Children's Hospital",
    "Address": "1465 S Grand Blvd, St. Louis, MO 63104",
    "link": "https://www.ssmhealth.com/locations/cardinal-glennon-childrens-hospital?utm_id=gmb-stl-11&hgcrm_channel=sms_text&hgcrm_source=healthgrades&hgcrm_agency=client&hgcrm_campaignid=1640&hgcrm_tacticid=2668&hgcrm_trackingsetid=4071",
    "Latitude": 38.6214405,
    "Longitude": -90.2392793
  },
  {
    "State_Abv": "MO",
    "State": "Missouri",
    "All_Centers": "MOCH-TX1",
    "Hospital_Name": "St. Louis Children's Hospital at Washington University Medical Center",
    "All_Centers_Hospital_Name": "MOCH-TX1 St. Louis Children's Hospital at Washington University Medical Center",
    "Address": "660 S Euclid Ave, St. Louis, MO 63110",
    "link": "https://medicine.wustl.edu/",
    "Latitude": 38.63457863,
    "Longitude": -90.26310875
  },
  {
    "State_Abv": "MO",
    "State": "Missouri",
    "All_Centers": "MOCM-TX1",
    "Hospital_Name": "Children's Mercy Hospital",
    "All_Centers_Hospital_Name": "MOCM-TX1 Children's Mercy Hospital",
    "Address": "615 S New Ballas Rd, St. Louis, MO 63141",
    "link": "https://www.mercy.net/practice/mercy-childrens-hospital-st-louis/",
    "Latitude": 38.6454887,
    "Longitude": -90.44607954
  },
  {
    "State_Abv": "MO",
    "State": "Missouri",
    "All_Centers": "MOCV-TX1",
    "Hospital_Name": "John Cochran Veterans Administration Hospital",
    "All_Centers_Hospital_Name": "MOCV-TX1 John Cochran Veterans Administration Hospital",
    "Address": "915 N Grand Blvd, St. Louis, MO 63106",
    "link": "http://www.stlouis.va.gov/",
    "Latitude": 38.64258935,
    "Longitude": -90.23156818
  },
  {
    "State_Abv": "MO",
    "State": "Missouri",
    "All_Centers": "MODU-TX1",
    "Hospital_Name": "DePaul Health Center",
    "All_Centers_Hospital_Name": "MODU-TX1 DePaul Health Center",
    "Address": "12303 De Paul Dr, Bridgeton, MO 63044",
    "link": "http://www.ssmhealth.com/",
    "Latitude": 38.75045619,
    "Longitude": -90.43402297
  },
  {
    "State_Abv": "MO",
    "State": "Missouri",
    "All_Centers": "MOJM-TX1",
    "Hospital_Name": "St Johns Mercy Medical Center",
    "All_Centers_Hospital_Name": "MOJM-TX1 St Johns Mercy Medical Center",
    "Address": "615 S New Ballas Rd, St. Louis, MO 63141",
    "link": "https://www.mercy.net/practice/mercy-hospital-st-louis?utm_source=google&utm_medium=organic_search&utm_campaign=yext&utm_term=East&utm_content=website&y_source=1_MTI5OTY2MjktNzE1LWxvY2F0aW9uLmdvb2dsZV93ZWJzaXRlX292ZXJyaWRl",
    "Latitude": 38.6454887,
    "Longitude": -90.44607954
  },
  {
    "State_Abv": "MO",
    "State": "Missouri",
    "All_Centers": "MOLH-TX1",
    "Hospital_Name": "St Luke's Hospital of Kansas City",
    "All_Centers_Hospital_Name": "MOLH-TX1 St Luke's Hospital of Kansas City",
    "Address": "4401 Wornall Rd, Kansas City, MO 64111",
    "link": "https://www.saintlukeskc.org/locations/saint-lukes-hospital-kansas-city?utm_campaign=website-link&utm_medium=organic&utm_source=local-listing",
    "Latitude": 39.046483,
    "Longitude": -94.590033
  },
  {
    "State_Abv": "MO",
    "State": "Missouri",
    "All_Centers": "MOMM-TX1",
    "Hospital_Name": "Menorah Medical Center",
    "All_Centers_Hospital_Name": "MOMM-TX1 Menorah Medical Center",
    "Address": "5721 W 119th St, Overland Park, KS 66209",
    "link": "http://menorahmedicalcenter.com/?utm_campaign=corp_listings_mgmt&utm_source=google&utm_medium=business_listing",
    "Latitude": 38.91001905,
    "Longitude": -94.65159693
  },
  {
    "State_Abv": "MO",
    "State": "Missouri",
    "All_Centers": "MORH-TX1",
    "Hospital_Name": "Research Medical Center",
    "All_Centers_Hospital_Name": "MORH-TX1 Research Medical Center",
    "Address": "2316 E Meyer Blvd, Kansas City, MO 64132",
    "link": "https://researchmedicalcenter.com/",
    "Latitude": 39.00993505,
    "Longitude": -94.55974788
  },
  {
    "State_Abv": "MO",
    "State": "Missouri",
    "All_Centers": "MOSJ-TX1",
    "Hospital_Name": "St Johns Regional Medical Center",
    "All_Centers_Hospital_Name": "MOSJ-TX1 St Johns Regional Medical Center",
    "Address": "1600 N Rose Ave, Oxnard, CA 93030",
    "link": "https://locations.dignityhealth.org/emergency-room-st-john's-regional-medical-center?utm_source=LocalSearch&utm_medium=Facility&utm_campaign=CentralCoast&utm_term=St.John%27sRegionalMedicalCenter-EmergencyRoom&y_source=1_ODczNzgyOS03MTUtbG9jYXRpb24ud2Vic2l0ZQ%3D%3D",
    "Latitude": 34.21672175,
    "Longitude": -119.1561769
  },
  {
    "State_Abv": "MO",
    "State": "Missouri",
    "All_Centers": "MOSL-TX1",
    "Hospital_Name": "SSM Health Saint Louis University Hospital",
    "All_Centers_Hospital_Name": "MOSL-TX1 SSM Health Saint Louis University Hospital",
    "Address": "1201 S Grand Blvd, St. Louis, MO 63104",
    "link": "https://www.ssmhealth.com/locations/saint-louis-university-hospital?utm_id=gmb-stl-11&hgcrm_channel=sms_text&hgcrm_source=healthgrades&hgcrm_agency=client&hgcrm_campaignid=1640&hgcrm_tacticid=2668&hgcrm_trackingsetid=4071",
    "Latitude": 38.623991,
    "Longitude": -90.23754
  },
  {
    "State_Abv": "MO",
    "State": "Missouri",
    "All_Centers": "MOUM-TX1",
    "Hospital_Name": "University of Missouri Hospital and Clinics",
    "All_Centers_Hospital_Name": "MOUM-TX1 University of Missouri Hospital and Clinics",
    "Address": "1 Hospital Dr, Columbia, MO 65212",
    "link": "https://www.muhealth.org/locations/university-hospital",
    "Latitude": 38.93869295,
    "Longitude": -92.3280373
  },
  {
    "State_Abv": "MS",
    "State": "Mississippi",
    "All_Centers": "MSUM-TX1",
    "Hospital_Name": "University of Mississippi Medical Center",
    "All_Centers_Hospital_Name": "MSUM-TX1 University of Mississippi Medical Center",
    "Address": "2500 N State St, Jackson, MS 39216",
    "link": "https://www.umc.edu/location.aspx?id=6",
    "Latitude": 32.32938955,
    "Longitude": -90.17252057
  },
  {
    "State_Abv": "NC",
    "State": "North Carolina",
    "All_Centers": "NCBG-TX1",
    "Hospital_Name": "Wake Forest Baptist Medical Center",
    "All_Centers_Hospital_Name": "NCBG-TX1 Wake Forest Baptist Medical Center",
    "Address": "1 Medical Center Blvd, Winston-Salem, NC 27157",
    "link": "https://www.wakehealth.edu/",
    "Latitude": 36.08983775,
    "Longitude": -80.26771223
  },
  {
    "State_Abv": "NC",
    "State": "North Carolina",
    "All_Centers": "NCCM-TX1",
    "Hospital_Name": "Carolinas Medical Center",
    "All_Centers_Hospital_Name": "NCCM-TX1 Carolinas Medical Center",
    "Address": "1000 Blythe Blvd, Charlotte, NC 28203",
    "link": "https://atriumhealth.org/locations/detail/carolinas-medical-center?utm_campaign=Homepage&utm_source=GMB&utm_medium=organic",
    "Latitude": 35.20374595,
    "Longitude": -80.83931376
  },
  {
    "State_Abv": "NC",
    "State": "North Carolina",
    "All_Centers": "NCDU-TX1",
    "Hospital_Name": "Duke University Hospital",
    "All_Centers_Hospital_Name": "NCDU-TX1 Duke University Hospital",
    "Address": "2301 Erwin Rd, Durham, NC 27710",
    "link": "https://www.dukehealth.org/hospitals/duke-university-hospital/home?utm_source=google&utm_medium=organic&utm_campaign=Directory+Management",
    "Latitude": 36.0070213,
    "Longitude": -78.93734788
  },
  {
    "State_Abv": "NC",
    "State": "North Carolina",
    "All_Centers": "NCDU-VA1",
    "Hospital_Name": "Durham VA Medical Center",
    "All_Centers_Hospital_Name": "NCDU-VA1 Durham VA Medical Center",
    "Address": "508 Fulton St, Durham, NC 27705",
    "link": "https://www.durham.va.gov/visitors/visiting.asp",
    "Latitude": 36.0088992,
    "Longitude": -78.93737728
  },
  {
    "State_Abv": "NC",
    "State": "North Carolina",
    "All_Centers": "NCEC-TX1",
    "Hospital_Name": "Vidant Medical Center",
    "All_Centers_Hospital_Name": "NCEC-TX1 Vidant Medical Center",
    "Address": "2100 Stantonsburg Rd, Greenville, NC 27834",
    "link": "https://locations.vidanthealth.com/nc/greenville/vidant-medical-center.html",
    "Latitude": 35.6088096,
    "Longitude": -77.4067487
  },
  {
    "State_Abv": "NC",
    "State": "North Carolina",
    "All_Centers": "NCMH-TX1",
    "Hospital_Name": "University of North Carolina Hospitals",
    "All_Centers_Hospital_Name": "NCMH-TX1 University of North Carolina Hospitals",
    "Address": "101 Manning Dr, Chapel Hill, NC 27514",
    "link": "http://www.uncmedicalcenter.org/",
    "Latitude": 35.9050278,
    "Longitude": -79.05064178
  },
  {
    "State_Abv": "ND",
    "State": "North Dakota",
    "All_Centers": "NDDH-TX1",
    "Hospital_Name": "Dakota Heartland Health System",
    "All_Centers_Hospital_Name": "NDDH-TX1 Dakota Heartland Health System",
    "Address": "2200 Landover Pl, Lynchburg, VA 24501",
    "link": "https://www.heartlandnursing.com/Lynchburg",
    "Latitude": 37.412614,
    "Longitude": -79.176519
  },
  {
    "State_Abv": "ND",
    "State": "North Dakota",
    "All_Centers": "NDMC-TX1",
    "Hospital_Name": "Sanford Bismarck Medical Center",
    "All_Centers_Hospital_Name": "NDMC-TX1 Sanford Bismarck Medical Center",
    "Address": "300 N 7th St, Bismarck, ND 58501",
    "link": "https://www.sanfordhealth.org/locations/sanford-medical-center-bismarck/?y_source=1_MTA2MTkwODQtNzE1LWxvY2F0aW9uLndlYnNpdGU=",
    "Latitude": 46.80749415,
    "Longitude": -100.7823347
  },
  {
    "State_Abv": "ND",
    "State": "North Dakota",
    "All_Centers": "NDSL-TX1",
    "Hospital_Name": "Sanford Medical Center Fargo",
    "All_Centers_Hospital_Name": "NDSL-TX1 Sanford Medical Center Fargo",
    "Address": "5225 23rd Ave S, Fargo, ND 58104",
    "link": "https://www.sanfordhealth.org/locations/sanford-medical-center-fargo/?y_source=1_MTA2MTkwODUtNzE1LWxvY2F0aW9uLndlYnNpdGU%3D",
    "Latitude": 46.8440283,
    "Longitude": -96.8563217
  },
  {
    "State_Abv": "NE",
    "State": "Nebraska",
    "All_Centers": "NEBM-TX1",
    "Hospital_Name": "BryanLGH Medical Center East",
    "All_Centers_Hospital_Name": "NEBM-TX1 BryanLGH Medical Center East",
    "Address": "1600 S 48th St, Lincoln, NE 68506",
    "link": "https://www.bryanhealth.com/locations/bryan-east-campus/?utm_campaign=website-link&utm_medium=organic&utm_source=local-listing",
    "Latitude": 40.7970947,
    "Longitude": -96.65130529
  },
  {
    "State_Abv": "NE",
    "State": "Nebraska",
    "All_Centers": "NECH-TX1",
    "Hospital_Name": "Children's Hospital & Medical Center",
    "All_Centers_Hospital_Name": "NECH-TX1 Children's Hospital & Medical Center",
    "Address": "8200 Dodge St, Omaha, NE 68114",
    "link": "https://www.childrensomaha.org/location/childrens-hospital/",
    "Latitude": 41.26082775,
    "Longitude": -96.0418497
  },
  {
    "State_Abv": "NE",
    "State": "Nebraska",
    "All_Centers": "NECM-TX1",
    "Hospital_Name": "Nebraska Health System Clarkson Hospital",
    "All_Centers_Hospital_Name": "NECM-TX1 Nebraska Health System Clarkson Hospital",
    "Address": "4350 Dewey Ave, Omaha, NE 68105",
    "link": "https://www.nebraskamed.com/nebraska-medical-center",
    "Latitude": 41.2564888,
    "Longitude": -95.9779821
  },
  {
    "State_Abv": "NE",
    "State": "Nebraska",
    "All_Centers": "NESJ-TX1",
    "Hospital_Name": "Saint Joseph Hospital at Creighton University Medical Center",
    "All_Centers_Hospital_Name": "NESJ-TX1 Saint Joseph Hospital at Creighton University Medical Center",
    "Address": "7500 Mercy Rd, Omaha, NE 68124",
    "link": "https://www.chihealth.com/content/chi-health/en/location-search/creighton-bergan.html?utm_source=LocalSearch&utm_medium=Facility&utm_campaign=CHIHealth&utm_term=CHIHealthCreightonUniversityMedicalCenter-BerganMercy&y_source=1_MTQ1MjI5NTktNzE1LWxvY2F0aW9uLndlYnNpdGU%3D",
    "Latitude": 41.2395005,
    "Longitude": -96.03112319
  },
  {
    "State_Abv": "NE",
    "State": "Nebraska",
    "All_Centers": "NEUN-TX1",
    "Hospital_Name": "The Nebraska Medical Center",
    "All_Centers_Hospital_Name": "NEUN-TX1 The Nebraska Medical Center",
    "Address": "4350 Dewey Ave, Omaha, NE 68105",
    "link": "https://www.nebraskamed.com/nebraska-medical-center",
    "Latitude": 41.2564888,
    "Longitude": -95.9779821
  },
  {
    "State_Abv": "NH",
    "State": "New Hampshire",
    "All_Centers": "NHDH-TX1",
    "Hospital_Name": "Mary Hitchcock Memorial Hospital",
    "All_Centers_Hospital_Name": "NHDH-TX1 Mary Hitchcock Memorial Hospital",
    "Address": "1 Medical Center Dr, Lebanon, NH 03766",
    "link": "http://patients.dartmouth-hitchcock.org/emergency.html",
    "Latitude": 43.67568425,
    "Longitude": -72.27010183
  },
  {
    "State_Abv": "NJ",
    "State": "New Jersey",
    "All_Centers": "NJBI-TX1",
    "Hospital_Name": "Newark Beth Israel Medical Center",
    "All_Centers_Hospital_Name": "NJBI-TX1 Newark Beth Israel Medical Center",
    "Address": "201 Lyons Ave, Newark, NJ 07112",
    "link": "http://www.rwjbh.org/newarkbeth",
    "Latitude": 40.71027275,
    "Longitude": -74.21258457
  },
  {
    "State_Abv": "NJ",
    "State": "New Jersey",
    "All_Centers": "NJHK-TX1",
    "Hospital_Name": "Hackensack University Medical Center",
    "All_Centers_Hospital_Name": "NJHK-TX1 Hackensack University Medical Center",
    "Address": "30 Prospect Ave, Hackensack, NJ 07601",
    "link": "http://www.hackensackumc.org/",
    "Latitude": 40.8837051,
    "Longitude": -74.05594088
  },
  {
    "State_Abv": "NJ",
    "State": "New Jersey",
    "All_Centers": "NJLL-TX1",
    "Hospital_Name": "Virtua Our Lady of Lourdes Hospital",
    "All_Centers_Hospital_Name": "NJLL-TX1 Virtua Our Lady of Lourdes Hospital",
    "Address": "1600 Haddon Ave, Camden, NJ 08103",
    "link": "https://www.virtua.org/locations/hospital-virtua-our-lady-of-lourdes",
    "Latitude": 39.9269412,
    "Longitude": -75.09687826
  },
  {
    "State_Abv": "NJ",
    "State": "New Jersey",
    "All_Centers": "NJRW-TX1",
    "Hospital_Name": "Robert Wood Johnson University Hospital",
    "All_Centers_Hospital_Name": "NJRW-TX1 Robert Wood Johnson University Hospital",
    "Address": "1 Robert Wood Johnson Place, New Brunswick, NJ 08901",
    "link": "http://www.rwjbh.org/newbrunswick",
    "Latitude": 40.49542503,
    "Longitude": -74.44987294
  },
  {
    "State_Abv": "NJ",
    "State": "New Jersey",
    "All_Centers": "NJSB-TX1",
    "Hospital_Name": "Saint Barnabas Medical Center",
    "All_Centers_Hospital_Name": "NJSB-TX1 Saint Barnabas Medical Center",
    "Address": "94 Old Short Hills Rd, Livingston, NJ 07039",
    "link": "http://www.rwjbh.org/saintbarnabas",
    "Latitude": 40.76346035,
    "Longitude": -74.3048418
  },
  {
    "State_Abv": "NJ",
    "State": "New Jersey",
    "All_Centers": "NJUH-TX1",
    "Hospital_Name": "University Hospital",
    "All_Centers_Hospital_Name": "NJUH-TX1 University Hospital",
    "Address": "150 Bergen St, Newark, NJ 07103",
    "link": "http://www.uhnj.org/?utm_source=local-listing&utm_medium=organic&utm_campaign=website-link",
    "Latitude": 40.740043,
    "Longitude": -74.18928832
  },
  {
    "State_Abv": "NM",
    "State": "New Mexico",
    "All_Centers": "NMAQ-TX1",
    "Hospital_Name": "University Hospital, University of New Mexico Health Sciences Center",
    "All_Centers_Hospital_Name": "NMAQ-TX1 University Hospital, University of New Mexico Health Sciences Center",
    "Address": "1021 Medical Arts Ave NE, Albuquerque, NM 87102",
    "link": "http://dermatology.unm.edu/",
    "Latitude": 35.09018721,
    "Longitude": -106.6309928
  },
  {
    "State_Abv": "NM",
    "State": "New Mexico",
    "All_Centers": "NMPH-TX1",
    "Hospital_Name": "Presbyterian Hospital",
    "All_Centers_Hospital_Name": "NMPH-TX1 Presbyterian Hospital",
    "Address": "1100 Central Ave SE, Albuquerque, NM 87106",
    "link": "https://presbyterian-hospital.phs.org/Pages/default.aspx?utm_source=gmb",
    "Latitude": 35.08092275,
    "Longitude": -106.6341359
  },
  {
    "State_Abv": "NV",
    "State": "Nevada",
    "All_Centers": "NVHH-TX1",
    "Hospital_Name": "Sunrise Hospital and Medical Center",
    "All_Centers_Hospital_Name": "NVHH-TX1 Sunrise Hospital and Medical Center",
    "Address": "3186 S Maryland Pkwy, Las Vegas, NV 89109",
    "link": "http://sunrisehospital.com/?utm_campaign=corp_listings_mgmt&utm_source=google&utm_medium=business_listing",
    "Latitude": 36.1537034,
    "Longitude": -115.1370957
  },
  {
    "State_Abv": "NV",
    "State": "Nevada",
    "All_Centers": "NVUM-TX1",
    "Hospital_Name": "University Medical Center of Southern Nevada",
    "All_Centers_Hospital_Name": "NVUM-TX1 University Medical Center of Southern Nevada",
    "Address": "1800 W Charleston Blvd, Las Vegas, NV 89102",
    "link": "https://www.umcsn.com/",
    "Latitude": 36.16021185,
    "Longitude": -115.1677488
  },
  {
    "State_Abv": "NY",
    "State": "New York",
    "All_Centers": "NYAM-TX1",
    "Hospital_Name": "Albany Medical Center Hospital",
    "All_Centers_Hospital_Name": "NYAM-TX1 Albany Medical Center Hospital",
    "Address": "43 New Scotland Ave, Albany, NY 12208",
    "link": "http://www.amc.edu/",
    "Latitude": 42.6538105,
    "Longitude": -73.77695852
  },
  {
    "State_Abv": "NY",
    "State": "New York",
    "All_Centers": "NYBC-TX1",
    "Hospital_Name": "Childrens Hospital of Buffalo",
    "All_Centers_Hospital_Name": "NYBC-TX1 Childrens Hospital of Buffalo",
    "Address": "818 Ellicott St, Buffalo, NY 14203",
    "link": "http://www.amc.edu/patient/services/childrens_hospital/index.cfm",
    "Latitude": 42.9008894,
    "Longitude": -78.86776359
  },
  {
    "State_Abv": "NY",
    "State": "New York",
    "All_Centers": "NYBU-TX1",
    "Hospital_Name": "Buffalo General Hospital/ Children's Hospital",
    "All_Centers_Hospital_Name": "NYBU-TX1 Buffalo General Hospital/ Children's Hospital",
    "Address": "100 High St, Buffalo, NY 14203",
    "link": "http://www.ochbuffalo.org/",
    "Latitude": 42.9012394,
    "Longitude": -78.86579919
  },
  {
    "State_Abv": "NY",
    "State": "New York",
    "All_Centers": "NYBU-VA1",
    "Hospital_Name": "Buffalo Veterans Administration Medical Center",
    "All_Centers_Hospital_Name": "NYBU-VA1 Buffalo Veterans Administration Medical Center",
    "Address": "3495 Bailey Ave, Buffalo, NY 14215",
    "link": "https://www.buffalo.va.gov/",
    "Latitude": 42.9510411,
    "Longitude": -78.8122744
  },
  {
    "State_Abv": "NY",
    "State": "New York",
    "All_Centers": "NYCC-TX1",
    "Hospital_Name": "Long Island Jewish Medical Center-Cohen Children's Medical Center",
    "All_Centers_Hospital_Name": "NYCC-TX1 Long Island Jewish Medical Center-Cohen Children's Medical Center",
    "Address": "269-01 76th Ave, Queens, NY 11040",
    "link": "https://childrenshospital.northwell.edu/?utm_source=provider_listing&utm_medium=partner&utm_campaign=doctor_dot_com",
    "Latitude": 40.7538889,
    "Longitude": -73.7083333
  },
  {
    "State_Abv": "NY",
    "State": "New York",
    "All_Centers": "NYCP-TX1",
    "Hospital_Name": "NY Presbyterian Hospital/Columbia Univ. Medical Center",
    "All_Centers_Hospital_Name": "NYCP-TX1 NY Presbyterian Hospital/Columbia Univ. Medical Center",
    "Address": "622 W 168th St, New York, NY 10032",
    "link": "http://www.cumc.columbia.edu/?utm_source=Ggl&utm_medium=GMB-link&utm_campaign=CD",
    "Latitude": 40.84141464,
    "Longitude": -73.94033186
  },
  {
    "State_Abv": "NY",
    "State": "New York",
    "All_Centers": "NYDS-TX1",
    "Hospital_Name": "State University of New York, Downstate Medical Center",
    "All_Centers_Hospital_Name": "NYDS-TX1 State University of New York, Downstate Medical Center",
    "Address": "450 Clarkson Ave, Brooklyn, NY 11203",
    "link": "http://www.downstate.edu/find-a-physician.html",
    "Latitude": 40.6553702,
    "Longitude": -73.9450773
  },
  {
    "State_Abv": "NY",
    "State": "New York",
    "All_Centers": "NYEC-TX1",
    "Hospital_Name": "Erie County Medical Center",
    "All_Centers_Hospital_Name": "NYEC-TX1 Erie County Medical Center",
    "Address": "462 Grider St, Buffalo, NY 14215",
    "link": "http://www.ecmc.edu/",
    "Latitude": 42.9263064,
    "Longitude": -78.83246089
  },
  {
    "State_Abv": "NY",
    "State": "New York",
    "All_Centers": "NYFL-TX1",
    "Hospital_Name": "Strong Memorial Hospital, University of Rochester Medical Center",
    "All_Centers_Hospital_Name": "NYFL-TX1 Strong Memorial Hospital, University of Rochester Medical Center",
    "Address": "601 Elmwood Ave, Rochester, NY 14642",
    "link": "http://urmc.rochester.edu/",
    "Latitude": 43.1225119,
    "Longitude": -77.62615249
  },
  {
    "State_Abv": "NY",
    "State": "New York",
    "All_Centers": "NYMA-TX1",
    "Hospital_Name": "Montefiore Medical Center",
    "All_Centers_Hospital_Name": "NYMA-TX1 Montefiore Medical Center",
    "Address": "2475 St Raymond Ave, The Bronx, NY 10461",
    "link": "https://www.montefiore.org/",
    "Latitude": 41.6865689,
    "Longitude": -73.89822742
  },
  {
    "State_Abv": "NY",
    "State": "New York",
    "All_Centers": "NYMS-TX1",
    "Hospital_Name": "Mount Sinai Medical Center",
    "All_Centers_Hospital_Name": "NYMS-TX1 Mount Sinai Medical Center",
    "Address": "5 E 98th St, New York, NY 10029",
    "link": "http://www.mountsinai.org/",
    "Latitude": 40.78909055,
    "Longitude": -73.95390005
  },
  {
    "State_Abv": "NY",
    "State": "New York",
    "All_Centers": "NYNS-TX1",
    "Hospital_Name": "North Shore University Hospital/Northwell Health",
    "All_Centers_Hospital_Name": "NYNS-TX1 North Shore University Hospital/Northwell Health",
    "Address": "611 Northern Blvd, Great Neck, NY 11021",
    "link": "https://www.northwell.edu/find-care/locations/northwell-health-center-adult-ophthalmology",
    "Latitude": 40.78280275,
    "Longitude": -73.71604474
  },
  {
    "State_Abv": "NY",
    "State": "New York",
    "All_Centers": "NYNY-TX1",
    "Hospital_Name": "New York-Presbyterian Hospital/Weill Cornell Medical Center",
    "All_Centers_Hospital_Name": "NYNY-TX1 New York-Presbyterian Hospital/Weill Cornell Medical Center",
    "Address": "1414 York Ave, New York, NY 10021",
    "link": "https://www.nyp.org/locations/newyork-presbyterian-weill-cornell-medical-center",
    "Latitude": 40.768834,
    "Longitude": -73.9520813
  },
  {
    "State_Abv": "NY",
    "State": "New York",
    "All_Centers": "NYSB-TX1",
    "Hospital_Name": "University Hospital of State University of New York at Stony Brook",
    "All_Centers_Hospital_Name": "NYSB-TX1 University Hospital of State University of New York at Stony Brook",
    "Address": "100 Nicolls Rd, Stony Brook, NY 11794",
    "link": "https://www.stonybrook.edu/",
    "Latitude": 40.9141181,
    "Longitude": -73.1211698
  },
  {
    "State_Abv": "NY",
    "State": "New York",
    "All_Centers": "NYSL-TX1",
    "Hospital_Name": "St. Luke's Roosevelt Hospital Center",
    "All_Centers_Hospital_Name": "NYSL-TX1 St. Luke's Roosevelt Hospital Center",
    "Address": "315 W 57th St #204, New York, NY 10019",
    "link": "",
    "Latitude": 40.76743269,
    "Longitude": -73.98362464
  },
  {
    "State_Abv": "NY",
    "State": "New York",
    "All_Centers": "NYUC-TX1",
    "Hospital_Name": "New York University Medical Center",
    "All_Centers_Hospital_Name": "NYUC-TX1 New York University Medical Center",
    "Address": "160 E 34th St, New York, NY 10016",
    "link": "",
    "Latitude": 40.74572245,
    "Longitude": -73.97881041
  },
  {
    "State_Abv": "NY",
    "State": "New York",
    "All_Centers": "NYUM-TX1",
    "Hospital_Name": "State University of New York Upstate Medical University",
    "All_Centers_Hospital_Name": "NYUM-TX1 State University of New York Upstate Medical University",
    "Address": "750 E Adams St, Syracuse, NY 13210",
    "link": "",
    "Latitude": 43.0408333,
    "Longitude": -76.1391667
  },
  {
    "State_Abv": "NY",
    "State": "New York",
    "All_Centers": "NYVA-TX1",
    "Hospital_Name": "James J. Peters VA Medical Center",
    "All_Centers_Hospital_Name": "NYVA-TX1 James J. Peters VA Medical Center",
    "Address": "130 W Kingsbridge Rd, The Bronx, NY 10468",
    "link": "https://www.va.gov/health/",
    "Latitude": 40.86720035,
    "Longitude": -73.90551069
  },
  {
    "State_Abv": "NY",
    "State": "New York",
    "All_Centers": "NYWC-TX1",
    "Hospital_Name": "Westchester Medical Center",
    "All_Centers_Hospital_Name": "NYWC-TX1 Westchester Medical Center",
    "Address": "3262 Westchester Ave, The Bronx, NY 10461",
    "link": "http://www.medicalclinicsofnyc.com/",
    "Latitude": 40.85245009,
    "Longitude": -73.82793674
  },
  {
    "State_Abv": "OH",
    "State": "Ohio",
    "All_Centers": "OHAC-TX1",
    "Hospital_Name": "Akron City Hospital",
    "All_Centers_Hospital_Name": "OHAC-TX1 Akron City Hospital",
    "Address": "141 N Forge St, Akron, OH 44304",
    "link": "https://www.summahealth.org/locations/hospitals/akron?utm_campaign=website-link&utm_medium=organic&utm_source=local-listing",
    "Latitude": 41.08194334,
    "Longitude": -81.50203507
  },
  {
    "State_Abv": "OH",
    "State": "Ohio",
    "All_Centers": "OHCA-TX1",
    "Hospital_Name": "Childrens Hospital Medical Center of Akron",
    "All_Centers_Hospital_Name": "OHCA-TX1 Childrens Hospital Medical Center of Akron",
    "Address": "1 Perkins Square, Akron, OH 44308",
    "link": "https://www.akronchildrens.org/",
    "Latitude": 41.07921977,
    "Longitude": -81.52545939
  },
  {
    "State_Abv": "OH",
    "State": "Ohio",
    "All_Centers": "OHCC-TX1",
    "Hospital_Name": "The Cleveland Clinic Foundation",
    "All_Centers_Hospital_Name": "OHCC-TX1 The Cleveland Clinic Foundation",
    "Address": "1 Akron General Ave, Akron, OH 44307",
    "link": "https://my.clevelandclinic.org/locations/directions/416-akron-general",
    "Latitude": 41.07844065,
    "Longitude": -81.53156148
  },
  {
    "State_Abv": "OH",
    "State": "Ohio",
    "All_Centers": "OHCH-TX1",
    "Hospital_Name": "Nationwide Children's Hospital",
    "All_Centers_Hospital_Name": "OHCH-TX1 Nationwide Children's Hospital",
    "Address": "700 Children's Dr, Columbus, OH 43205",
    "link": "https://www.nationwidechildrens.org/",
    "Latitude": 39.95281405,
    "Longitude": -82.98039904
  },
  {
    "State_Abv": "OH",
    "State": "Ohio",
    "All_Centers": "OHCM-TX1",
    "Hospital_Name": "Children's Hospital Medical Center",
    "All_Centers_Hospital_Name": "OHCM-TX1 Children's Hospital Medical Center",
    "Address": "3333 Burnet Ave, Cincinnati, OH 45229",
    "link": "https://www.cincinnatichildrens.org/?utm_source=local&utm_medium=organic&utm_campaign=profile_listing&utm_content=website",
    "Latitude": 39.14084475,
    "Longitude": -84.50228847
  },
  {
    "State_Abv": "OH",
    "State": "Ohio",
    "All_Centers": "OHCO-TX1",
    "Hospital_Name": "University of Toledo Medical Center",
    "All_Centers_Hospital_Name": "OHCO-TX1 University of Toledo Medical Center",
    "Address": "3000 Arlington Ave, Toledo, OH 43614",
    "link": "https://www.utoledo.edu/hscerror.html",
    "Latitude": 41.619478,
    "Longitude": -83.620893
  },
  {
    "State_Abv": "OH",
    "State": "Ohio",
    "All_Centers": "OHMV-TX1",
    "Hospital_Name": "Miami Valley Hospital",
    "All_Centers_Hospital_Name": "OHMV-TX1 Miami Valley Hospital",
    "Address": "1 Wyoming St, Dayton, OH 45409",
    "link": "https://www.premierhealth.com/locations/hospitals/miami-valley-hospital",
    "Latitude": 39.74524605,
    "Longitude": -84.18604426
  },
  {
    "State_Abv": "OH",
    "State": "Ohio",
    "All_Centers": "OHOU-TX1",
    "Hospital_Name": "Ohio State University Medical Center",
    "All_Centers_Hospital_Name": "OHOU-TX1 Ohio State University Medical Center",
    "Address": "410 W 10th Ave, Columbus, OH 43210",
    "link": "https://wexnermedical.osu.edu/",
    "Latitude": 39.9950822,
    "Longitude": -83.01873232
  },
  {
    "State_Abv": "OH",
    "State": "Ohio",
    "All_Centers": "OHSE-TX1",
    "Hospital_Name": "St. Elizabeth Health Center",
    "All_Centers_Hospital_Name": "OHSE-TX1 St. Elizabeth Health Center",
    "Address": "1044 Belmont Ave, Youngstown, OH 44505",
    "link": "http://www.stelizabeth.com/",
    "Latitude": 41.1132814,
    "Longitude": -80.6566146
  },
  {
    "State_Abv": "OH",
    "State": "Ohio",
    "All_Centers": "OHTC-TX1",
    "Hospital_Name": "The Christ Hospital",
    "All_Centers_Hospital_Name": "OHTC-TX1 The Christ Hospital",
    "Address": "2139 Auburn Ave, Cincinnati, OH 45219",
    "link": "https://www.thechristhospital.com/locations/locations-hospital",
    "Latitude": 39.12083875,
    "Longitude": -84.51111282
  },
  {
    "State_Abv": "OH",
    "State": "Ohio",
    "All_Centers": "OHUC-TX1",
    "Hospital_Name": "University of Cincinnati Medical Center",
    "All_Centers_Hospital_Name": "OHUC-TX1 University of Cincinnati Medical Center",
    "Address": "3200 Burnet Ave, Cincinnati, OH 45229",
    "link": "http://www.uchealth.com/",
    "Latitude": 39.136733,
    "Longitude": -84.500749
  },
  {
    "State_Abv": "OH",
    "State": "Ohio",
    "All_Centers": "OHUH-TX1",
    "Hospital_Name": "University Hospitals of Cleveland",
    "All_Centers_Hospital_Name": "OHUH-TX1 University Hospitals of Cleveland",
    "Address": "11100 Euclid Ave, Cleveland, OH 44106",
    "link": "https://www.uhhospitals.org/locations/uh-cleveland-medical-center/services/emergency-room?utm_campaign=UH_Cleveland_Medical_Center_Emergency_Room_11100_Euclid_Avenue&utm_source=yext&utm_medium=locallisting&utm_content=website_url",
    "Latitude": 41.505776,
    "Longitude": -81.60606907
  },
  {
    "State_Abv": "OK",
    "State": "Oklahoma",
    "All_Centers": "OKBC-TX1",
    "Hospital_Name": "Integris Baptist Medical Center",
    "All_Centers_Hospital_Name": "OKBC-TX1 Integris Baptist Medical Center",
    "Address": "3300 Northwest Expy, Oklahoma City, OK 73112",
    "link": "https://baptist.integrisok.com/",
    "Latitude": 35.5294826,
    "Longitude": -97.57649973
  },